header: 
  seq: 6019
  stamp: 
    secs: 1583155839
    nsecs: 122714042
  frame_id: ''
name: [panda_joint1, panda_joint2, panda_joint3, panda_joint4, panda_joint5, panda_joint6,
  panda_joint7, panda_finger_joint1, panda_finger_joint2]
position: [0.485362966804678, -0.4760589162508318, -0.2113471690015295, -2.3845979527784715, -0.1494155476053322, 1.9420122177718897, 0.8942781773950802, 0.0, 0.0]
velocity: [0.0018585084174503176, -0.0007691014229469226, 0.0007116574553509901, -0.00040750196573578187, -0.0003900228880738864, 0.0013512013198845518, 0.00012573037911453374, 0.0, 0.0]
effort: [-0.2636975646018982, -13.78669261932373, 2.2734737396240234, 22.979665756225586, 0.8148108124732971, 2.449594497680664, 0.04587705805897713, 0.0, 0.0]
---
header: 
  seq: 6020
  stamp: 
    secs: 1583155839
    nsecs: 222475051
  frame_id: ''
name: [panda_joint1, panda_joint2, panda_joint3, panda_joint4, panda_joint5, panda_joint6,
  panda_joint7, panda_finger_joint1, panda_finger_joint2]
position: [0.48536234728256117, -0.47603273425206627, -0.2113491787634261, -2.3846104058717423, -0.1494161061402538, 1.9420014621409234, 0.8942758754595753, 0.0, 0.0]
velocity: [-0.0007581228352030885, -0.0007128320771693315, -0.0010268423726562804, -0.0011062538211654256, -0.0004799285285150014, -8.145129327461648e-05, -0.0009020907687276165, 0.0, 0.0]
effort: [-0.239893838763237, -14.02472972869873, 2.4083614349365234, 23.086782455444336, 0.8340368866920471, 2.538400650024414, 0.06510313600301743, 0.0, 0.0]
---
header: 
  seq: 6021
  stamp: 
    secs: 1583155839
    nsecs: 322525978
  frame_id: ''
name: [panda_joint1, panda_joint2, panda_joint3, panda_joint4, panda_joint5, panda_joint6,
  panda_joint7, panda_finger_joint1, panda_finger_joint2]
position: [0.48537857177859084, -0.47602966059269464, -0.21131866423591142, -2.3846041723635767, -0.14941540283924049, 1.942007264930183, 0.8942795776640162, 0.0, 0.0]
velocity: [-0.0004637049472615773, 0.0014285612800580198, 0.0007191447826176904, -0.0009076041985878954, 0.0003067270631610328, -0.001122874878356771, -0.0002175753034696943, 0.0, 0.0]
effort: [-0.4303235411643982, -14.02472972869873, 2.0036983489990234, 22.979665756225586, 0.8276281952857971, 2.486215591430664, 0.06510313600301743, 0.0, 0.0]
---
header: 
  seq: 6022
  stamp: 
    secs: 1583155839
    nsecs: 422517061
  frame_id: ''
name: [panda_joint1, panda_joint2, panda_joint3, panda_joint4, panda_joint5, panda_joint6,
  panda_joint7, panda_finger_joint1, panda_finger_joint2]
position: [0.48536953315828624, -0.4760367829775898, -0.21134604967949114, -2.3846033622457274, -0.14941683138079112, 1.942003265963143, 0.8942759779802062, 0.0, 0.0]
velocity: [1.6294561133938608e-05, -0.0005333012300084389, 0.0012001436317530096, 0.0011252894162538441, -0.0002930197245632275, 0.0001926511627104508, -0.0015032922184867671, 0.0, 0.0]
effort: [-0.3470105528831482, -13.92158031463623, 2.1663570404052734, 22.924123764038086, 0.8404455780982971, 2.493539810180664, 0.09714659303426743, 0.0, 0.0]
---
header: 
  seq: 6023
  stamp: 
    secs: 1583155839
    nsecs: 522535085
  frame_id: ''
name: [panda_joint1, panda_joint2, panda_joint3, panda_joint4, panda_joint5, panda_joint6,
  panda_joint7, panda_finger_joint1, panda_finger_joint2]
position: [0.4853656177657383, -0.47603356530791835, -0.21135036175709465, -2.384610359358995, -0.14941611930396823, 1.9420043640567912, 0.8942795097817174, 0.0, 0.0]
velocity: [0.0009234960055059268, 0.00025720123479592454, -0.00033691826975019133, 0.00046796918303642656, 0.0003616663246017729, -0.00022060724659744203, 0.00048722159790937883, 0.0, 0.0]
effort: [-0.2914685606956482, -13.92158031463623, 2.2734737396240234, 22.979665756225586, 0.8340368866920471, 2.509103775024414, 0.027566511183977127, 0.0, 0.0]
---
header: 
  seq: 6024
  stamp: 
    secs: 1583155839
    nsecs: 622479915
  frame_id: ''
name: [panda_joint1, panda_joint2, panda_joint3, panda_joint4, panda_joint5, panda_joint6,
  panda_joint7, panda_finger_joint1, panda_finger_joint2]
position: [0.4853688272208049, -0.4760271879379762, -0.2113414440565946, -2.384612030812546, -0.1494146951502976, 1.9420038552383945, 0.8942787346101284, 0.0, 0.0]
velocity: [-0.0006920054767146316, -0.0013495160191295636, -0.00023347457400231812, 0.00014188534886920765, 0.0004108494308560846, -4.550518452026704e-05, -0.0007980758194111948, 0.0, 0.0]
effort: [-0.2914685606956482, -13.92158031463623, 2.1901607513427734, 23.003469467163086, 0.8212195038795471, 2.516427993774414, 0.07151182740926743, 0.0, 0.0]
---
header: 
  seq: 6025
  stamp: 
    secs: 1583155839
    nsecs: 722553014
  frame_id: ''
name: [panda_joint1, panda_joint2, panda_joint3, panda_joint4, panda_joint5, panda_joint6,
  panda_joint7, panda_finger_joint1, panda_finger_joint2]
position: [0.48536004081422385, -0.47603258911097596, -0.21136415321111016, -2.384605254618139, -0.14941821604329372, 1.9420055355956247, 0.8942829840014571, 0.0, 0.0]
velocity: [-0.00014882983009368387, -0.0005746016995039664, -0.000716506439234659, 0.00021646893336124386, -0.0006468538208593301, -5.817399829441763e-05, 0.0005077674063226871, 0.0, 0.0]
effort: [-0.212122842669487, -13.89380931854248, 2.3805904388427734, 22.896352767944336, 0.8532629609107971, 2.501779556274414, 0.03397520259022713, 0.0, 0.0]
---
header: 
  seq: 6026
  stamp: 
    secs: 1583155839
    nsecs: 822510004
  frame_id: ''
name: [panda_joint1, panda_joint2, panda_joint3, panda_joint4, panda_joint5, panda_joint6,
  panda_joint7, panda_finger_joint1, panda_finger_joint2]
position: [0.48536366112440116, -0.47602942609497195, -0.21134838229533548, -2.3846068035521695, -0.14941363259818816, 1.9420064506977133, 0.8942781520420997, 0.0, 0.0]
velocity: [-3.293728471192e-05, 0.00016571252109086747, -0.0012489212765770582, -0.0004846213849239493, -0.00021267070053676974, -0.00023675367781663298, -0.0010112415073320873, 0.0, 0.0]
effort: [-0.2636975646018982, -13.92158031463623, 2.2457027435302734, 22.924123764038086, 0.8404455780982971, 2.493539810180664, 0.07792051881551743, 0.0, 0.0]
---
header: 
  seq: 6027
  stamp: 
    secs: 1583155839
    nsecs: 922569036
  frame_id: ''
name: [panda_joint1, panda_joint2, panda_joint3, panda_joint4, panda_joint5, panda_joint6,
  panda_joint7, panda_finger_joint1, panda_finger_joint2]
position: [0.4853727252288179, -0.4760238347103002, -0.21133576227336545, -2.3846136960455007, -0.1494164759605019, 1.9420007242299333, 0.8942742581585083, 0.0, 0.0]
velocity: [-0.0003230180566134408, -6.2900649073036e-05, 0.0011733663804931302, -5.635547764142623e-05, -0.00017895347965775655, -0.0004956079359571976, -0.0013321902831043401, 0.0, 0.0]
effort: [-0.3470105528831482, -13.97315502166748, 2.1108150482177734, 22.979665756225586, 0.8404455780982971, 2.516427993774414, 0.08432921022176743, 0.0, 0.0]
---
header: 
  seq: 6028
  stamp: 
    secs: 1583155840
    nsecs:  22486925
  frame_id: ''
name: [panda_joint1, panda_joint2, panda_joint3, panda_joint4, panda_joint5, panda_joint6,
  panda_joint7, panda_finger_joint1, panda_finger_joint2]
position: [0.4853656393516561, -0.47602650061145263, -0.21134841291527995, -2.3846117483774814, -0.14941683138078285, 1.9420052546894986, 0.8942809885805972, 0.0, 0.0]
velocity: [-3.4311023776045705e-05, -0.00039119249285379196, 0.0005299901240930714, 0.0010065270942118875, -0.00011510907121989216, 0.000302788345526298, -0.0003198229175879434, 0.0, 0.0]
effort: [-0.2914685606956482, -13.94538402557373, 2.2457027435302734, 22.951894760131836, 0.8404455780982971, 2.493539810180664, 0.05228574946522713, 0.0, 0.0]
---
header: 
  seq: 6029
  stamp: 
    secs: 1583155840
    nsecs: 122494935
  frame_id: ''
name: [panda_joint1, panda_joint2, panda_joint3, panda_joint4, panda_joint5, panda_joint6,
  panda_joint7, panda_finger_joint1, panda_finger_joint2]
position: [0.4853688276215906, -0.4760177152097028, -0.21134006711301964, -2.3846212141805063, -0.1494168307126739, 1.942000358425625, 0.8942735460854272, 0.0, 0.0]
velocity: [-0.0011541248268518373, -0.00032064301637471014, -0.00031414248043465793, -0.0014108744782749534, -0.00019874591946270786, -0.00046217830288550324, -0.0017039607957427946, 0.0, 0.0]
effort: [-0.2914685606956482, -14.02472972869873, 2.2179317474365234, 23.086782455444336, 0.8404455780982971, 2.516427993774414, 0.09073790162801743, 0.0, 0.0]
---
header: 
  seq: 6030
  stamp: 
    secs: 1583155840
    nsecs: 222537040
  frame_id: ''
name: [panda_joint1, panda_joint2, panda_joint3, panda_joint4, panda_joint5, panda_joint6,
  panda_joint7, panda_finger_joint1, panda_finger_joint2]
position: [0.4853766229529129, -0.476023568333241, -0.21133965594726697, -2.3846160564199543, -0.14940971012300777, 1.942010520193952, 0.8942837045780048, 0.0, 0.0]
velocity: [0.0005782162498135893, 0.00026715236855865803, 0.0007029275938498014, -0.001130711123733808, 0.0007781365087093305, 0.0003597585667919773, 0.0010081062863912646, 0.0, 0.0]
effort: [-0.4025525450706482, -13.97315502166748, 2.1663570404052734, 23.003469467163086, 0.7763586640357971, 2.456918716430664, 0.027566511183977127, 0.0, 0.0]
---
header: 
  seq: 6031
  stamp: 
    secs: 1583155840
    nsecs: 322495937
  frame_id: ''
name: [panda_joint1, panda_joint2, panda_joint3, panda_joint4, panda_joint5, panda_joint6,
  panda_joint7, panda_finger_joint1, panda_finger_joint2]
position: [0.4855331875186872, -0.47559146782526057, -0.2112627976381226, -2.385403481538438, -0.14939543061962982, 1.9420088924269665, 0.8942699269704365, 0.0, 0.0]
velocity: [-0.0010267529550869287, 0.008586201514454873, -0.0006651686417145673, -0.015332032590182064, -0.00021913643157136194, -0.00013111144604059633, -0.0023974464286780654, 0.0, 0.0]
effort: [-0.128809854388237, -14.36988353729248, 2.4599361419677734, 23.245473861694336, 0.7379065155982971, 2.471567153930664, 0.10904844850301743, 0.0, 0.0]
---
header: 
  seq: 6032
  stamp: 
    secs: 1583155840
    nsecs: 422540903
  frame_id: ''
name: [panda_joint1, panda_joint2, panda_joint3, panda_joint4, panda_joint5, panda_joint6,
  panda_joint7, panda_finger_joint1, panda_finger_joint2]
position: [0.485485573369667, -0.47318786464904444, -0.21254780104433985, -2.3877802053221524, -0.14942395164318287, 1.9424892745439382, 0.8937023768516511, 0.0, 0.0]
velocity: [-0.0010478178936153158, 0.0450596584339918, -0.034022936329435295, -0.03785220515792105, -2.5775918983710652e-05, 0.022123677150731137, -0.0027165348681463517, 0.0, 0.0]
effort: [0.200474813580513, -14.61188793182373, 2.8645992279052734, 22.979665756225586, 0.9045324921607971, 2.175851821899414, 0.10355528444051743, 0.0, 0.0]
---
header: 
  seq: 6033
  stamp: 
    secs: 1583155840
    nsecs: 522531986
  frame_id: ''
name: [panda_joint1, panda_joint2, panda_joint3, panda_joint4, panda_joint5, panda_joint6,
  panda_joint7, panda_finger_joint1, panda_finger_joint2]
position: [0.48533751954591603, -0.4655350820601434, -0.21911734243844064, -2.396937121127097, -0.14961042978261158, 1.9441264732021972, 0.8936972667965704, 0.0, 0.0]
velocity: [-0.00373449908161762, 0.1293337490502031, -0.08424466963619713, -0.1322826605502369, -0.008852198859087428, 0.01796938048136753, 0.0014165517341563519, 0.0, 0.0]
effort: [0.033848837018013, -15.21888256072998, 2.7297115325927734, 23.217702865600586, 1.0711584091186523, 2.065073013305664, 0.11545713990926743, 0.0, 0.0]
---
header: 
  seq: 6034
  stamp: 
    secs: 1583155840
    nsecs: 622534036
  frame_id: ''
name: [panda_joint1, panda_joint2, panda_joint3, panda_joint4, panda_joint5, panda_joint6,
  panda_joint7, panda_finger_joint1, panda_finger_joint2]
position: [0.48536344192898917, -0.4462788298719763, -0.2294991131581817, -2.4146137431370924, -0.1498101123351465, 1.949244059152193, 0.8925483026896159, 0.0, 0.0]
velocity: [-0.0016508245605220914, 0.23930289493145654, -0.1185377622702829, -0.20108572329175423, -0.0009607541528959685, 0.10084310715175424, -0.04030172910822144, 0.0, 0.0]
effort: [-0.3192395567893982, -15.38154125213623, 2.5432491302490234, 22.495656967163086, 0.8853064179420471, 1.7171725034713745, 0.293069452047348, 0.0, 0.0]
---
header: 
  seq: 6035
  stamp: 
    secs: 1583155840
    nsecs: 722637891
  frame_id: ''
name: [panda_joint1, panda_joint2, panda_joint3, panda_joint4, panda_joint5, panda_joint6,
  panda_joint7, panda_finger_joint1, panda_finger_joint2]
position: [0.4853559042641565, -0.4161902813025524, -0.2408891419789954, -2.4346896789603836, -0.15007162030720048, 1.977001276104961, 0.8837032664937262, 0.0, 0.0]
velocity: [0.0048263151446661014, 0.33717015595014144, -0.10677349332011325, -0.19565793463737743, 0.00058664748846186, 0.45011609325023844, -0.1349446036557397, 0.0, 0.0]
effort: [-0.2914685606956482, -16.492382049560547, 2.6503658294677734, 23.193899154663086, 0.8660803437232971, 1.8508394956588745, 0.14109189808368683, 0.0, 0.0]
---
header: 
  seq: 6036
  stamp: 
    secs: 1583155840
    nsecs: 822788000
  frame_id: ''
name: [panda_joint1, panda_joint2, panda_joint3, panda_joint4, panda_joint5, panda_joint6,
  panda_joint7, panda_finger_joint1, panda_finger_joint2]
position: [0.4853963834749958, -0.3786357337009825, -0.24840855829521907, -2.4528338242695114, -0.14997094771652855, 2.0347335606608894, 0.8758984090580427, 0.0, 0.0]
velocity: [0.0006826927060175447, 0.37547625222902387, -0.046974738139794976, -0.1688203685130065, 0.0048584262146690255, 0.6456742701887545, -0.006557616085830034, 0.0, 0.0]
effort: [-0.5929822325706482, -16.678844451904297, 2.2179317474365234, 22.416311264038086, 0.5126867890357971, 1.8654879331588745, 0.09714659303426743, 0.0, 0.0]
---
header: 
  seq: 6037
  stamp: 
    secs: 1583155840
    nsecs: 922112941
  frame_id: ''
name: [panda_joint1, panda_joint2, panda_joint3, panda_joint4, panda_joint5, panda_joint6,
  panda_joint7, panda_finger_joint1, panda_finger_joint2]
position: [0.4854210545602327, -0.3415718081609664, -0.2507155777607158, -2.468056796642351, -0.14846378318472897, 2.10049583639674, 0.875975339164289, 0.0, 0.0]
velocity: [0.00020107363643602534, 0.3641851900762074, -0.001332858621168745, -0.13269607374857123, 0.05798550063963809, 0.6193369573080811, 0.0018183288358293629, 0.0, 0.0]
effort: [-0.6762952208518982, -18.138805389404297, 1.9481562376022339, 22.444082260131836, 0.14647583663463593, 2.309518814086914, -0.06123964115977287, 0.0, 0.0]
---
header: 
  seq: 6038
  stamp: 
    secs: 1583155841
    nsecs:  22495031
  frame_id: ''
name: [panda_joint1, panda_joint2, panda_joint3, panda_joint4, panda_joint5, panda_joint6,
  panda_joint7, panda_finger_joint1, panda_finger_joint2]
position: [0.485610696585852, -0.30614176444614816, -0.25068608482377497, -2.480055294528013, -0.13881424756294725, 2.154634456692628, 0.875970682241381, 0.0, 0.0]
velocity: [0.002165575318025782, 0.3444218928417138, 0.0017185247025402934, -0.10475299896139315, 0.07594533480572555, 0.5096843856716664, 0.001612876892775776, 0.0, 0.0]
effort: [-0.7040662169456482, -18.801342010498047, 1.5712641477584839, 21.507802963256836, 0.2883825898170471, 2.065073013305664, -0.004476945381611586, 0.0, 0.0]
---
header: 
  seq: 6039
  stamp: 
    secs: 1583155841
    nsecs: 122539997
  frame_id: ''
name: [panda_joint1, panda_joint2, panda_joint3, panda_joint4, panda_joint5, panda_joint6,
  panda_joint7, panda_finger_joint1, panda_finger_joint2]
position: [0.4860510972364597, -0.2707877883854734, -0.25060265626012207, -2.4893643220521215, -0.13615382996439804, 2.204081230776328, 0.8759744917582485, 0.0, 0.0]
velocity: [0.004068994917329309, 0.360754960663627, -0.0017017908299158985, -0.08320011242465909, -8.704405561355122e-06, 0.4834583968295913, -0.0012928514792144405, 0.0, 0.0]
effort: [-0.5136365294456482, -19.705883026123047, 1.3848017454147339, 21.456228256225586, 0.2883825898170471, 2.028451919555664, 0.014749128371477127, 0.0, 0.0]
---
header: 
  seq: 6040
  stamp: 
    secs: 1583155841
    nsecs: 222649097
  frame_id: ''
name: [panda_joint1, panda_joint2, panda_joint3, panda_joint4, panda_joint5, panda_joint6,
  panda_joint7, panda_finger_joint1, panda_finger_joint2]
position: [0.4860552699871358, -0.23480072585157993, -0.2507393662723838, -2.498382575265967, -0.1358367243313916, 2.250021209830689, 0.8759773706773087, 0.0, 0.0]
velocity: [0.00030400823976750455, 0.36359737094362693, 0.000807154960452388, -0.09220202303180486, 0.00804053255603649, 0.4189676853458729, 0.0006540329432032624, 0.0, 0.0]
effort: [-0.5136365294456482, -20.872264862060547, 1.3292597532272339, 21.801382064819336, 0.14006714522838593, 2.190500259399414, 0.021157819777727127, 0.0, 0.0]
---
header: 
  seq: 6041
  stamp: 
    secs: 1583155841
    nsecs: 322560071
  frame_id: ''
name: [panda_joint1, panda_joint2, panda_joint3, panda_joint4, panda_joint5, panda_joint6,
  panda_joint7, panda_finger_joint1, panda_finger_joint2]
position: [0.4860773941252486, -0.1995583765648174, -0.25068536518865026, -2.506668729801029, -0.12878453107565357, 2.2877212284670394, 0.8760227202752865, 0.0, 0.0]
velocity: [0.0002581015768314735, 0.32990777768397156, 0.003772203724202807, -0.07761919172085618, 0.15023723682282641, 0.34742385513244994, 0.0010873999724640454, 0.0, 0.0]
effort: [-0.7040662169456482, -21.245189666748047, 0.8730220198631287, 20.761953353881836, 0.10802368819713593, 2.005563735961914, 0.0019317460246384144, 0.0, 0.0]
---
header: 
  seq: 6042
  stamp: 
    secs: 1583155841
    nsecs: 422621011
  frame_id: ''
name: [panda_joint1, panda_joint2, panda_joint3, panda_joint4, panda_joint5, panda_joint6,
  panda_joint7, panda_finger_joint1, panda_finger_joint2]
position: [0.48631779882322873, -0.16915564243033623, -0.250600060534059, -2.513614690072582, -0.1012705789677936, 2.322956401709224, 0.8759937176263195, 0.0, 0.0]
velocity: [0.0007901906615503644, 0.27348054612424083, 0.0002837979462035452, -0.06239563693673742, 0.3440002818071835, 0.3358331845126738, 0.0011667239251704944, 0.0, 0.0]
effort: [-0.7040662169456482, -21.772838592529297, 0.7103633284568787, 20.682607650756836, 0.2755652070045471, 1.9909151792526245, 0.09073790162801743, 0.0, 0.0]
---
header: 
  seq: 6043
  stamp: 
    secs: 1583155841
    nsecs: 522471904
  frame_id: ''
name: [panda_joint1, panda_joint2, panda_joint3, panda_joint4, panda_joint5, panda_joint6,
  panda_joint7, panda_finger_joint1, panda_finger_joint2]
position: [0.48750762471809234, -0.14622991307445024, -0.250125723194638, -2.5194672122174038, -0.07221405208696415, 2.3551603988115732, 0.8758868227065356, 0.0, 0.0]
velocity: [0.01831599424423807, 0.20390693148819988, 0.005451205398552135, -0.05580640687532405, 0.2071472896042582, 0.34425147309657056, -0.005405430510457066, 0.0, 0.0]
effort: [-0.8667249083518982, -22.117992401123047, 0.33347123861312866, 20.095449447631836, 0.3524695038795471, 1.9689425230026245, 0.21067197620868683, 0.0, 0.0]
---
header: 
  seq: 6044
  stamp: 
    secs: 1583155841
    nsecs: 622481107
  frame_id: ''
name: [panda_joint1, panda_joint2, panda_joint3, panda_joint4, panda_joint5, panda_joint6,
  panda_joint7, panda_finger_joint1, panda_finger_joint2]
position: [0.4915126979333647, -0.12727523449784336, -0.25002624450373295, -2.5250654922092974, -0.05342784068312912, 2.390682739633335, 0.8757835018777345, 0.0, 0.0]
velocity: [0.05243374526513955, 0.20170639129534024, -0.0017701403662181289, -0.04947318896010146, 0.16942972776995427, 0.3288386156189947, 0.0016525824926861073, 0.0, 0.0]
effort: [-0.4580945372581482, -22.887645721435547, 0.6548213362693787, 20.095449447631836, 0.2755652070045471, 2.116342544555664, 0.18503721058368683, 0.0, 0.0]
---
header: 
  seq: 6045
  stamp: 
    secs: 1583155841
    nsecs: 722678899
  frame_id: ''
name: [panda_joint1, panda_joint2, panda_joint3, panda_joint4, panda_joint5, panda_joint6,
  panda_joint7, panda_finger_joint1, panda_finger_joint2]
position: [0.49679112796451885, -0.10700666019391099, -0.24998068058575493, -2.528555712595968, -0.0403446039485439, 2.4176483666218633, 0.8750186209727714, 0.0, 0.0]
velocity: [0.04458775148302453, 0.22448319041059978, 0.0001638449217503959, -0.02388801441663596, 0.07976061854612058, 0.22605022232007405, -0.006828458328592282, 0.0, 0.0]
effort: [-0.7834119200706482, -23.312145233154297, 0.17081253230571747, 19.825674057006836, 0.3076086640357971, 2.220712661743164, 0.21067197620868683, 0.0, 0.0]
---
header: 
  seq: 6046
  stamp: 
    secs: 1583155841
    nsecs: 822523117
  frame_id: ''
name: [panda_joint1, panda_joint2, panda_joint3, panda_joint4, panda_joint5, panda_joint6,
  panda_joint7, panda_finger_joint1, panda_finger_joint2]
position: [0.500158839196187, -0.08379699417869116, -0.24997848697148747, -2.530435013474421, -0.0380080773555637, 2.431620505235772, 0.8750131802514672, 0.0, 0.0]
velocity: [0.028058027236052798, 0.2515856361144634, -0.0006561680819418335, -0.007665785858490177, 0.0024738179862132214, 0.09654195668218088, -0.0016094550139251528, 0.0, 0.0]
effort: [-0.5652112364768982, -23.470836639404297, 0.27792924642562866, 19.210744857788086, 0.11443237960338593, 2.079721450805664, 0.20426328480243683, 0.0, 0.0]
---
header: 
  seq: 6047
  stamp: 
    secs: 1583155841
    nsecs: 922522068
  frame_id: ''
name: [panda_joint1, panda_joint2, panda_joint3, panda_joint4, panda_joint5, panda_joint6,
  panda_joint7, panda_finger_joint1, panda_finger_joint2]
position: [0.5021204367998434, -0.05822956709126897, -0.24997249824358544, -2.5307528672251713, -0.03692062440236978, 2.4434198012232513, 0.8750293794646526, 0.0, 0.0]
velocity: [0.011442378695347163, 0.25666158696428426, -0.0005402927893518624, 0.0007858448938231629, 0.039594724304746476, 0.17202110950078411, 2.1514371969728115e-05, 0.0, 0.0]
effort: [-0.4858655333518982, -24.296031951904297, 0.14700882136821747, 18.302236557006836, -0.026558831334114075, 1.7913302183151245, 0.09714659303426743, 0.0, 0.0]
---
header: 
  seq: 6048
  stamp: 
    secs: 1583155842
    nsecs:  22579908
  frame_id: ''
name: [panda_joint1, panda_joint2, panda_joint3, panda_joint4, panda_joint5, panda_joint6,
  panda_joint7, panda_finger_joint1, panda_finger_joint2]
position: [0.5028725148963591, -0.03535691146442153, -0.2499536052133646, -2.5307629917118906, -0.024413228238335288, 2.465733839634446, 0.8750334510422445, 0.0, 0.0]
velocity: [0.004945732596407346, 0.20625941528265296, 0.0011014831346761829, 0.000511702459665959, 0.2274867181756403, 0.26161277152371776, 0.0010135145288638966, 0.0, 0.0]
effort: [-0.5374402403831482, -24.930797576904297, -0.12276656925678253, 18.385549545288086, 0.024710699915885925, 1.8581637144088745, 0.10355528444051743, 0.0, 0.0]
---
header: 
  seq: 6049
  stamp: 
    secs: 1583155842
    nsecs: 122498035
  frame_id: ''
name: [panda_joint1, panda_joint2, panda_joint3, panda_joint4, panda_joint5, panda_joint6,
  panda_joint7, panda_finger_joint1, panda_finger_joint2]
position: [0.5044501964500598, -0.01619241871484691, -0.2499470636819495, -2.5319729187237545, 0.0015554100027708822, 2.494718201377672, 0.8750253284568783, 0.0, 0.0]
velocity: [0.025757570420150203, 0.16712060560884082, 0.0014019830378176979, -0.029048851081679653, 0.23760434232938782, 0.30483874773482655, 0.0008593058752662739, 0.0, 0.0]
effort: [-0.2914685606956482, -25.224376678466797, -0.12276656925678253, 18.330007553100586, 0.2691565155982971, 2.153879165649414, 0.13468320667743683, 0.0, 0.0]
---
header: 
  seq: 6050
  stamp: 
    secs: 1583155842
    nsecs: 222505092
  frame_id: ''
name: [panda_joint1, panda_joint2, panda_joint3, panda_joint4, panda_joint5, panda_joint6,
  panda_joint7, panda_finger_joint1, panda_finger_joint2]
position: [0.5085438572779979, 0.0033332593065112746, -0.24985688688743582, -2.534776356030298, 0.01677443479996757, 2.524211362625017, 0.8750042476204658, 0.0, 0.0]
velocity: [0.0507498388985278, 0.20980969240790417, 0.0006851120194169297, -0.021763153104875553, 0.11764663649809001, 0.29369795673416116, -0.002113615060257259, 0.0, 0.0]
effort: [-0.5929822325706482, -25.859142303466797, -0.47585493326187134, 18.091970443725586, 0.19225220382213593, 2.146554946899414, 0.24179990589618683, 0.0, 0.0]
---
header: 
  seq: 6051
  stamp: 
    secs: 1583155842
    nsecs: 322036027
  frame_id: ''
name: [panda_joint1, panda_joint2, panda_joint3, panda_joint4, panda_joint5, panda_joint6,
  panda_joint7, panda_finger_joint1, panda_finger_joint2]
position: [0.5123104022658546, 0.02561442354570537, -0.2492813936367773, -2.535646646233345, 0.021610028263737677, 2.547819581236852, 0.8750061443543617, 0.0, 0.0]
velocity: [0.020505491034618517, 0.2280016831564556, 0.006219079461292446, 0.0012952132959612695, 0.0068915450587191404, 0.15059636508290042, 0.0020103466670855145, 0.0, 0.0]
effort: [-0.6762952208518982, -26.180492401123047, -0.6900883316993713, 17.556386947631836, 0.06957153975963593, 2.220712661743164, 0.17862851917743683, 0.0, 0.0]
---
header: 
  seq: 6052
  stamp: 
    secs: 1583155842
    nsecs: 422564983
  frame_id: ''
name: [panda_joint1, panda_joint2, panda_joint3, panda_joint4, panda_joint5, panda_joint6,
  panda_joint7, panda_finger_joint1, panda_finger_joint2]
position: [0.5133754078114272, 0.05003521030272763, -0.24748411609535284, -2.5355142130148516, 0.021984599227476805, 2.558489833612754, 0.874599344569329, 0.0, 0.0]
velocity: [0.0007129598002915989, 0.24488483839863182, 0.026176421122398402, -0.0012148724781077484, -0.00010933239143843676, 0.06336753994629184, -0.004199862642795057, 0.0, 0.0]
effort: [-0.5929822325706482, -26.418529510498047, -0.6345463395118713, 16.969228744506836, 0.12724976241588593, 1.9835909605026245, 0.24820859730243683, 0.0, 0.0]
---
header: 
  seq: 6053
  stamp: 
    secs: 1583155842
    nsecs: 522519111
  frame_id: ''
name: [panda_joint1, panda_joint2, panda_joint3, panda_joint4, panda_joint5, panda_joint6,
  panda_joint7, panda_finger_joint1, panda_finger_joint2]
position: [0.5134373140755089, 0.07289990307476989, -0.24527996732179974, -2.5337626574148833, 0.022086159477178312, 2.564841171704371, 0.8742870648088596, 0.0, 0.0]
velocity: [-0.001025186934869586, 0.2075944065193971, 0.013503168611794273, 0.02385354384180445, 0.0004223333666562486, 0.08114858279718623, 0.0005459360938730303, 0.0, 0.0]
effort: [-0.5136365294456482, -26.390758514404297, -0.7972050309181213, 16.433645248413086, 0.037528082728385925, 1.9240816831588745, 0.13468320667743683, 0.0, 0.0]
---
header: 
  seq: 6054
  stamp: 
    secs: 1583155842
    nsecs: 622473001
  frame_id: ''
name: [panda_joint1, panda_joint2, panda_joint3, panda_joint4, panda_joint5, panda_joint6,
  panda_joint7, panda_finger_joint1, panda_finger_joint2]
position: [0.5134636621135545, 0.08998963945974545, -0.24462563581314525, -2.53213586963633, 0.02310555031321813, 2.578658342303602, 0.8742786216123236, 0.0, 0.0]
velocity: [0.0003778791308114975, 0.14735585384841254, 0.016303396906044106, 0.010276542129685878, 0.026084945052557977, 0.1537619775449184, -0.0020719069422304114, 0.0, 0.0]
effort: [-0.6207532286643982, -27.081066131591797, -1.0114384889602661, 16.140066146850586, -0.026558831334114075, 1.9689425230026245, 0.21067197620868683, 0.0, 0.0]
---
header: 
  seq: 6055
  stamp: 
    secs: 1583155842
    nsecs: 722537040
  frame_id: ''
name: [panda_joint1, panda_joint2, panda_joint3, panda_joint4, panda_joint5, panda_joint6,
  panda_joint7, panda_finger_joint1, panda_finger_joint2]
position: [0.51344720368218, 0.10294583748165066, -0.24259545512092523, -2.5311237282310803, 0.027874475594526868, 2.5945632043141584, 0.8739867658212798, 0.0, 0.0]
velocity: [-0.0001230692829637703, 0.12748582660318333, 0.030433934988981472, 0.014043471728949888, 0.08082073919577319, 0.17045727707187722, -0.005376222352297352, 0.0, 0.0]
effort: [-0.4303235411643982, -27.743602752685547, -0.9043217301368713, 15.981374740600586, -0.07782836258411407, 2.028451919555664, 0.21708066761493683, 0.0, 0.0]
---
header: 
  seq: 6056
  stamp: 
    secs: 1583155842
    nsecs: 822561979
  frame_id: ''
name: [panda_joint1, panda_joint2, panda_joint3, panda_joint4, panda_joint5, panda_joint6,
  panda_joint7, panda_finger_joint1, panda_finger_joint2]
position: [0.5134226758198941, 0.1158445645577346, -0.23876556924174455, -2.5306972701219412, 0.04203427318391089, 2.608158948084229, 0.8737835527653091, 0.0, 0.0]
velocity: [0.0016002556800531044, 0.12670896467911164, 0.0489966697575882, 0.004962593840808373, 0.12531044945620615, 0.13055694850657218, -0.009417954811663236, 0.0, 0.0]
effort: [-0.2636975646018982, -27.398448944091797, -0.7972050309181213, 15.818716049194336, 0.031119391322135925, 2.109018325805664, 0.24179990589618683, 0.0, 0.0]
---
header: 
  seq: 6057
  stamp: 
    secs: 1583155842
    nsecs: 922517061
  frame_id: ''
name: [panda_joint1, panda_joint2, panda_joint3, panda_joint4, panda_joint5, panda_joint6,
  panda_joint7, panda_finger_joint1, panda_finger_joint2]
position: [0.5134656811220603, 0.12933243055313298, -0.23370569673924232, -2.5299715225514214, 0.05389975081678173, 2.619393217096061, 0.8736328452874976, 0.0, 0.0]
velocity: [-0.0011053268519635544, 0.13710178795545905, 0.05632258745883756, 0.0038934683850707077, 0.11141611827149843, 0.08642305933167847, -0.00030291633531586196, 0.0, 0.0]
effort: [-0.4303235411643982, -28.060985565185547, -1.0392094850540161, 15.767141342163086, 0.17943482100963593, 2.020212173461914, 0.19785459339618683, 0.0, 0.0]
---
header: 
  seq: 6058
  stamp: 
    secs: 1583155843
    nsecs:  22696971
  frame_id: ''
name: [panda_joint1, panda_joint2, panda_joint3, panda_joint4, panda_joint5, panda_joint6,
  panda_joint7, panda_finger_joint1, panda_finger_joint2]
position: [0.5134783929264125, 0.14291111334987722, -0.229160132674396, -2.5290784594428755, 0.0580962035606303, 2.6233058984737454, 0.8736005098324636, 0.0, 0.0]
velocity: [-0.0004763248940990484, 0.12781826664062965, 0.0371134920711662, 0.014352181955251083, 0.00014185053548078266, 0.022141120181533816, -0.001126028766917402, 0.0, 0.0]
effort: [-0.3747815489768982, -28.060985565185547, -1.0114384889602661, 15.497365951538086, 0.15929321944713593, 1.9616183042526245, 0.22989805042743683, 0.0, 0.0]
---
header: 
  seq: 6059
  stamp: 
    secs: 1583155843
    nsecs: 122622013
  frame_id: ''
name: [panda_joint1, panda_joint2, panda_joint3, panda_joint4, panda_joint5, panda_joint6,
  panda_joint7, panda_finger_joint1, panda_finger_joint2]
position: [0.5134640934722067, 0.154601685649719, -0.22608979887668484, -2.526039921186919, 0.058117752560789646, 2.6243307438681374, 0.8735847894269381, 0.0, 0.0]
velocity: [0.0010777876189144674, 0.09465754450103187, 0.03177238290329262, 0.038075538294824476, 0.00019301336055225894, 0.013671108395488516, 0.0013899652237726527, 0.0, 0.0]
effort: [-0.3470105528831482, -28.406139373779297, -1.0669804811477661, 15.604482650756836, 0.13365845382213593, 1.9542940855026245, 0.16031797230243683, 0.0, 0.0]
---
header: 
  seq: 6060
  stamp: 
    secs: 1583155843
    nsecs: 222543954
  frame_id: ''
name: [panda_joint1, panda_joint2, panda_joint3, panda_joint4, panda_joint5, panda_joint6,
  panda_joint7, panda_finger_joint1, panda_finger_joint2]
position: [0.5135040600653593, 0.16246001183500186, -0.22298837615930162, -2.522950348238222, 0.05814160865963432, 2.6248515046992034, 0.8735927503963146, 0.0, 0.0]
velocity: [-0.00013008102647185204, 0.04961529559090994, 0.025502099543085202, 0.012240283374587624, -0.0006748935842435898, -7.083180941907742e-05, -0.0010925917675447178, 0.0, 0.0]
effort: [-0.6485242247581482, -28.406139373779297, -1.3883305788040161, 15.310903549194336, 0.14006714522838593, 1.9909151792526245, 0.16672666370868683, 0.0, 0.0]
---
header: 
  seq: 6061
  stamp: 
    secs: 1583155843
    nsecs: 322468042
  frame_id: ''
name: [panda_joint1, panda_joint2, panda_joint3, panda_joint4, panda_joint5, panda_joint6,
  panda_joint7, panda_finger_joint1, panda_finger_joint2]
position: [0.5134962649214524, 0.16546778790034206, -0.22135169845521088, -2.5211518876498724, 0.05815446594338875, 2.62490410317384, 0.873594481865608, 0.0, 0.0]
velocity: [0.0010123404448676126, -0.006188336193143715, 0.002094879431453484, 0.03315916887944378, 0.00024050950931535643, -6.321801058638073e-05, -0.0015075161436868562, 0.0, 0.0]
effort: [-0.5374402403831482, -27.822948455810547, -1.2018681764602661, 14.965749740600586, 0.07598023116588593, 2.079721450805664, 0.14109189808368683, 0.0, 0.0]
---
header: 
  seq: 6062
  stamp: 
    secs: 1583155843
    nsecs: 422590017
  frame_id: ''
name: [panda_joint1, panda_joint2, panda_joint3, panda_joint4, panda_joint5, panda_joint6,
  panda_joint7, panda_finger_joint1, panda_finger_joint2]
position: [0.5134355103086781, 0.1625041234693265, -0.22138342616787954, -2.513030084308099, 0.05815184203309359, 2.6248281137463243, 0.8737575282078031, 0.0, 0.0]
velocity: [0.0010278928138755532, -0.06102030080950128, -0.0013125596084002148, 0.12179237405195607, 2.487429506477191e-05, -0.001054929785138061, 0.006689714220281279, 0.0, 0.0]
effort: [-0.2636975646018982, -26.894603729248047, -0.7416630387306213, 15.473562240600586, 0.20506958663463593, 2.346139907836914, -0.16194765269756317, 0.0, 0.0]
---
header: 
  seq: 6063
  stamp: 
    secs: 1583155843
    nsecs: 522459030
  frame_id: ''
name: [panda_joint1, panda_joint2, panda_joint3, panda_joint4, panda_joint5, panda_joint6,
  panda_joint7, panda_finger_joint1, panda_finger_joint2]
position: [0.5134508871287039, 0.15166780355543197, -0.22136685798048, -2.5021711313533177, 0.0581429466141604, 2.6226715689274887, 0.8759796024430561, 0.0, 0.0]
velocity: [-0.0008209625504580522, -0.15120617680927256, -0.0006105376912348021, 0.10566031863926734, -3.5714538193771644e-05, -0.027306782268074023, -0.0003256913260457836, 0.0, 0.0]
effort: [-0.239893838763237, -26.656566619873047, -0.7178593277931213, 15.711599349975586, 0.2563391327857971, 2.390085220336914, -0.04201356694102287, 0.0, 0.0]
---
header: 
  seq: 6064
  stamp: 
    secs: 1583155843
    nsecs: 622515916
  frame_id: ''
name: [panda_joint1, panda_joint2, panda_joint3, panda_joint4, panda_joint5, panda_joint6,
  panda_joint7, panda_finger_joint1, panda_finger_joint2]
position: [0.5133388242657412, 0.13118548717138698, -0.2216680336759083, -2.490643254749061, 0.05813827273022035, 2.618645849533285, 0.8759929473582209, 0.0, 0.0]
velocity: [0.0005403228124106238, -0.24984692631963387, -0.0007451982696098005, 0.11554080329217041, 0.0005692705705622951, -0.04924189831084496, 0.001166692029959545, 0.0, 0.0]
effort: [-0.073267862200737, -26.604991912841797, -0.47585493326187134, 16.382070541381836, 0.2563391327857971, 2.627206802368164, -0.16194765269756317, 0.0, 0.0]
---
header: 
  seq: 6065
  stamp: 
    secs: 1583155843
    nsecs: 722532033
  frame_id: ''
name: [panda_joint1, panda_joint2, panda_joint3, panda_joint4, panda_joint5, panda_joint6,
  panda_joint7, panda_finger_joint1, panda_finger_joint2]
position: [0.5132890965273516, 0.10264249640707168, -0.22187734450060326, -2.4814097132312916, 0.058109164870447594, 2.6057010236311733, 0.8772628333427084, 0.0, 0.0]
velocity: [-0.003951523159421623, -0.3282983988493311, -0.00431785394988309, 0.06044275432651922, 0.00017851157468301787, -0.18675249380215142, 0.007662301557816091, 0.0, 0.0]
effort: [0.144932821393013, -26.232067108154297, -0.04342086613178253, 16.806570053100586, 0.4357824921607971, 2.708688735961914, -0.11159364134073257, 0.0, 0.0]
---
header: 
  seq: 6066
  stamp: 
    secs: 1583155843
    nsecs: 822532892
  frame_id: ''
name: [panda_joint1, panda_joint2, panda_joint3, panda_joint4, panda_joint5, panda_joint6,
  panda_joint7, panda_finger_joint1, panda_finger_joint2]
position: [0.5131723493473571, 0.06758915846706182, -0.22244542924901342, -2.476458631396377, 0.05804696943140618, 2.578504616054443, 0.8773631093850754, 0.0, 0.0]
velocity: [0.0009273377495950828, -0.3587375067340307, -0.000151536396515436, 0.06649130676567297, 0.0001784207176563335, -0.39046542868554196, -0.00211945813660996, 0.0, 0.0]
effort: [-0.156580850481987, -25.462413787841797, -0.15053756535053253, 17.369924545288086, 0.6088171601295471, 2.804819107055664, -0.03560487553477287, 0.0, 0.0]
---
header: 
  seq: 6067
  stamp: 
    secs: 1583155843
    nsecs: 922478914
  frame_id: ''
name: [panda_joint1, panda_joint2, panda_joint3, panda_joint4, panda_joint5, panda_joint6,
  panda_joint7, panda_finger_joint1, panda_finger_joint2]
position: [0.5131860052611139, 0.02903922094306517, -0.2224734886186454, -2.4697313541237373, 0.05636607916730992, 2.532028195076934, 0.8773455784475954, 0.0, 0.0]
velocity: [0.0011773737479992693, -0.39775908297618223, -0.0010957366359465694, 0.08545884500826277, -0.034719737679049845, -0.5065946362391246, -2.1449821911303656e-05, 0.0, 0.0]
effort: [-0.2636975646018982, -24.823680877685547, 0.06369583308696747, 17.449270248413086, 0.8532629609107971, 2.553049087524414, 0.008340436965227127, 0.0, 0.0]
---
header: 
  seq: 6068
  stamp: 
    secs: 1583155844
    nsecs:  22475957
  frame_id: ''
name: [panda_joint1, panda_joint2, panda_joint3, panda_joint4, panda_joint5, panda_joint6,
  panda_joint7, panda_finger_joint1, panda_finger_joint2]
position: [0.5131745496919518, -0.01126971737031466, -0.2224914860474436, -2.4596328660385676, 0.046574238975976685, 2.4834175999334223, 0.8773326609152491, 0.0, 0.0]
velocity: [-0.0009574283185979119, -0.3935391279019245, -0.000679238641514091, 0.1277759705747986, -0.18462503192062943, -0.4620540176055869, -0.00125732395818496, 0.0, 0.0]
effort: [-0.128809854388237, -24.478527069091797, 0.27792924642562866, 18.651357650756836, 1.0391149520874023, 2.478891372680664, 0.03397520259022713, 0.0, 0.0]
---
header: 
  seq: 6069
  stamp: 
    secs: 1583155844
    nsecs: 122535943
  frame_id: ''
name: [panda_joint1, panda_joint2, panda_joint3, panda_joint4, panda_joint5, panda_joint6,
  panda_joint7, panda_finger_joint1, panda_finger_joint2]
position: [0.5131857420812196, -0.05044797110179336, -0.2226678144436447, -2.446644090375962, 0.015459120796204867, 2.437813550623207, 0.8774944918255294, 0.0, 0.0]
velocity: [0.00018066713998552425, -0.3835312528220019, -0.0006940300900065022, 0.13219831106451144, -0.34871545288400035, -0.489054826498866, 0.005097400956187475, 0.0, 0.0]
effort: [-0.3470105528831482, -23.974681854248047, 0.25412553548812866, 19.587636947631836, 0.9622107148170471, 2.723337173461914, -0.18758241832256317, 0.0, 0.0]
---
header: 
  seq: 6070
  stamp: 
    secs: 1583155844
    nsecs: 222491025
  frame_id: ''
name: [panda_joint1, panda_joint2, panda_joint3, panda_joint4, panda_joint5, panda_joint6,
  panda_joint7, panda_finger_joint1, panda_finger_joint2]
position: [0.5131473721042997, -0.08788009243704639, -0.22277477039516685, -2.4334326376981745, -0.020183291013348776, 2.3875292833786057, 0.8775675170855425, 0.0, 0.0]
velocity: [0.0005845724183399685, -0.360920609319124, 0.00046510559155593916, 0.13462869550170206, -0.37590674507567146, -0.5057797824041356, 0.003053341875194901, 0.0, 0.0]
effort: [-0.017725870013237, -22.994762420654297, 0.6032466292381287, 19.797903060913086, 1.0134801864624023, 2.589670181274414, -0.18758241832256317, 0.0, 0.0]
---
header: 
  seq: 6071
  stamp: 
    secs: 1583155844
    nsecs: 322617053
  frame_id: ''
name: [panda_joint1, panda_joint2, panda_joint3, panda_joint4, panda_joint5, panda_joint6,
  panda_joint7, panda_finger_joint1, panda_finger_joint2]
position: [0.5131282479752574, -0.1232339519951416, -0.22373844755265915, -2.4218899766912068, -0.05670733686529651, 2.3390202590290454, 0.8785960078399678, 0.0, 0.0]
velocity: [-0.0009744772690002941, -0.3493646158787785, -0.014979987682501028, 0.11853011384263906, -0.33589703838242696, -0.47267917837839263, 0.019500980565022908, 0.0, 0.0]
effort: [0.061619833111763, -22.117992401123047, 0.8730220198631287, 19.988332748413086, 0.9109411835670471, 2.464242935180664, -0.17476503551006317, 0.0, 0.0]
---
header: 
  seq: 6072
  stamp: 
    secs: 1583155844
    nsecs: 422454118
  frame_id: ''
name: [panda_joint1, panda_joint2, panda_joint3, panda_joint4, panda_joint5, panda_joint6,
  panda_joint7, panda_finger_joint1, panda_finger_joint2]
position: [0.5129660514794048, -0.15879132245902136, -0.22460392186974373, -2.410573262505515, -0.08177372910642967, 2.297839546213095, 0.8793633642729214, 0.0, 0.0]
velocity: [-0.00062275591157498, -0.36220283603269016, 0.0006790161032338991, 0.10999130089744145, -0.18401012658851754, -0.3608261548154738, 0.00022092721438976987, 0.0, 0.0]
effort: [0.010045126080513, -21.455455780029297, 1.0079096555709839, 20.468374252319336, 0.9173498749732971, 2.427621841430664, -0.13722841441631317, 0.0, 0.0]
---
header: 
  seq: 6073
  stamp: 
    secs: 1583155844
    nsecs: 522500991
  frame_id: ''
name: [panda_joint1, panda_joint2, panda_joint3, panda_joint4, panda_joint5, panda_joint6,
  panda_joint7, panda_finger_joint1, panda_finger_joint2]
position: [0.5130293244466396, -0.1960990836428978, -0.2244892336107143, -2.399601165331951, -0.09305526293176393, 2.270706022867251, 0.8793923758847475, 0.0, 0.0]
velocity: [0.0002675980278032388, -0.38614243919426317, 0.007743055099332809, 0.10554956984062648, -0.05232677952099559, -0.21370003485170358, 0.0020392677496504207, 0.0, 0.0]
effort: [-0.5374402403831482, -20.713573455810547, 0.6548213362693787, 20.547719955444336, 0.8019934296607971, 2.553049087524414, -0.16835634410381317, 0.0, 0.0]
---
header: 
  seq: 6074
  stamp: 
    secs: 1583155844
    nsecs: 622577905
  frame_id: ''
name: [panda_joint1, panda_joint2, panda_joint3, panda_joint4, panda_joint5, panda_joint6,
  panda_joint7, panda_finger_joint1, panda_finger_joint2]
position: [0.513028320429677, -0.2339045156135431, -0.22429009780642334, -2.3886173557475763, -0.09448292999330851, 2.2495368024841342, 0.8793901989542433, 0.0, 0.0]
velocity: [0.0006162505513999302, -0.38132971957710643, 0.0007677109316008527, 0.09643471403074975, -0.008960931964373713, -0.19493943131362443, 0.0015688016882783999, 0.0, 0.0]
effort: [-0.4580945372581482, -19.729686737060547, 0.9007930159568787, 20.920644760131836, 1.0775671005249023, 2.656503677368164, -0.14913026988506317, 0.0, 0.0]
---
header: 
  seq: 6075
  stamp: 
    secs: 1583155844
    nsecs: 722560882
  frame_id: ''
name: [panda_joint1, panda_joint2, panda_joint3, panda_joint4, panda_joint5, panda_joint6,
  panda_joint7, panda_finger_joint1, panda_finger_joint2]
position: [0.513081705692634, -0.26963658331648377, -0.22388127788009254, -2.381225210181512, -0.0995325551996358, 2.2271708888427613, 0.879388048586746, 0.0, 0.0]
velocity: [-0.0006342577539140895, -0.337877054423132, 0.005170164807018906, 0.046543918466564756, -0.13521008140454646, -0.28992230104081396, -0.001959622412632998, 0.0, 0.0]
effort: [-0.7040662169456482, -18.987804412841797, 0.8174800276756287, 21.507802963256836, 1.2643346786499023, 2.708688735961914, -0.08595887571573257, 0.0, 0.0]
---
header: 
  seq: 6076
  stamp: 
    secs: 1583155844
    nsecs: 822453022
  frame_id: ''
name: [panda_joint1, panda_joint2, panda_joint3, panda_joint4, panda_joint5, panda_joint6,
  panda_joint7, panda_finger_joint1, panda_finger_joint2]
position: [0.5136113265211283, -0.30178214114633817, -0.22335372885068633, -2.3799439413968067, -0.12536907173990075, 2.192357855325172, 0.8793916089708605, 0.0, 0.0]
velocity: [0.003548267399954036, -0.30072463645640213, 0.0011174207414834554, -0.006238942613727035, -0.39963303586972354, -0.4299810805083602, -0.00040518250278815624, 0.0, 0.0]
effort: [-0.6207532286643982, -18.190380096435547, 0.9523677229881287, 22.122732162475586, 1.3284215927124023, 2.834115982055664, -0.11800233274698257, 0.0, 0.0]
---
header: 
  seq: 6077
  stamp: 
    secs: 1583155844
    nsecs: 922573089
  frame_id: ''
name: [panda_joint1, panda_joint2, panda_joint3, panda_joint4, panda_joint5, panda_joint6,
  panda_joint7, panda_finger_joint1, panda_finger_joint2]
position: [0.514229126245564, -0.32969111037123267, -0.2226737218642565, -2.379809387028577, -0.17287513479930158, 2.1396401981139292, 0.8793846493981056, 0.0, 0.0]
velocity: [0.01697034087862275, -0.2719443362392332, 0.011674767026930292, 0.00667300713558538, -0.47575423638451636, -0.5851142133165793, 0.0015343843497474593, 0.0, 0.0]
effort: [-0.7040662169456482, -17.158885955810547, 1.1666010618209839, 21.456228256225586, 0.7827673554420471, 2.723337173461914, -0.09877625852823257, 0.0, 0.0]
---
header: 
  seq: 6078
  stamp: 
    secs: 1583155845
    nsecs:  22634029
  frame_id: ''
name: [panda_joint1, panda_joint2, panda_joint3, panda_joint4, panda_joint5, panda_joint6,
  panda_joint7, panda_finger_joint1, panda_finger_joint2]
position: [0.5171963818064409, -0.35569174746226206, -0.2221985801931131, -2.378513052420837, -0.1972296823102721, 2.082150389720393, 0.879382025722949, 0.0, 0.0]
velocity: [0.029845731306782513, -0.24518135493791207, -0.0008787075546852465, 0.0185498295077885, -0.015695522261461425, -0.5806774787415769, 0.0009061180746887001, 0.0, 0.0]
effort: [-0.4580945372581482, -16.468578338623047, 1.7061518430709839, 21.614919662475586, 0.4742346405982971, 2.582345962524414, -0.11800233274698257, 0.0, 0.0]
---
header: 
  seq: 6079
  stamp: 
    secs: 1583155845
    nsecs: 122092962
  frame_id: ''
name: [panda_joint1, panda_joint2, panda_joint3, panda_joint4, panda_joint5, panda_joint6,
  panda_joint7, panda_finger_joint1, panda_finger_joint2]
position: [0.5243076075321806, -0.3804079992098863, -0.22183133502893282, -2.376695412217737, -0.19654132877513547, 2.026996637770581, 0.8793071825891117, 0.0, 0.0]
velocity: [0.10567536700816704, -0.2627909336512519, 0.007119153775615868, 0.02875052435178217, 0.005401750326776062, -0.42451442804757744, -0.005452876373637981, 0.0, 0.0]
effort: [-1.0571545362472534, -15.54023265838623, 1.3292597532272339, 21.400686264038086, 0.4742346405982971, 2.109018325805664, 0.09714659303426743, 0.0, 0.0]
---
header: 
  seq: 6080
  stamp: 
    secs: 1583155845
    nsecs: 222543954
  frame_id: ''
name: [panda_joint1, panda_joint2, panda_joint3, panda_joint4, panda_joint5, panda_joint6,
  panda_joint7, panda_finger_joint1, panda_finger_joint2]
position: [0.537626234005447, -0.4065248810349242, -0.22173469207997912, -2.3709246529487986, -0.19180665993587098, 1.9972666971448954, 0.8793255730726998, 0.0, 0.0]
velocity: [0.1638331280329611, -0.2571222740738467, -0.00041110980237066426, 0.08694483993824606, 0.14178539148677546, -0.22209215160135826, -0.0014705521285983145, 0.0, 0.0]
effort: [-1.0571545362472534, -14.92927074432373, 1.7894648313522339, 21.749807357788086, -0.020150139927864075, 2.427621841430664, 0.0019317460246384144, 0.0, 0.0]
---
header: 
  seq: 6081
  stamp: 
    secs: 1583155845
    nsecs: 322617053
  frame_id: ''
name: [panda_joint1, panda_joint2, panda_joint3, panda_joint4, panda_joint5, panda_joint6,
  panda_joint7, panda_finger_joint1, panda_finger_joint2]
position: [0.5544871165316042, -0.4292558009661392, -0.2217963105740984, -2.361534379687272, -0.16112777240216627, 1.9835303237598896, 0.8792939624342183, 0.0, 0.0]
velocity: [0.16324573705208142, -0.20520617007735215, -0.0005695353579831207, 0.08015967596838998, 0.402170513583057, 0.00242610956872802, -0.0010176327789110649, 0.0, 0.0]
effort: [-0.5652112364768982, -13.92158031463623, 2.2179317474365234, 21.297536849975586, 0.3460608124732971, 2.250009536743164, 0.11545713990926743, 0.0, 0.0]
---
header: 
  seq: 6082
  stamp: 
    secs: 1583155845
    nsecs: 422478914
  frame_id: ''
name: [panda_joint1, panda_joint2, panda_joint3, panda_joint4, panda_joint5, panda_joint6,
  panda_joint7, panda_finger_joint1, panda_finger_joint2]
position: [0.5717044520794445, -0.44777902883678083, -0.22176990638049632, -2.3525424517495903, -0.12967866670948575, 1.9835804059777769, 0.878932033761839, 0.0, 0.0]
velocity: [0.16439171878834274, -0.15312025761386222, 0.0001704673606531771, 0.07831976092513594, 0.17475216292576895, -0.0016155090742729578, -0.0012815864464248163, 0.0, 0.0]
effort: [-0.5652112364768982, -14.13184642791748, 1.9759272336959839, 21.856924057006836, 0.7122717499732971, 2.641855239868164, -0.004476945381611586, 0.0, 0.0]
---
header: 
  seq: 6083
  stamp: 
    secs: 1583155845
    nsecs: 522535085
  frame_id: ''
name: [panda_joint1, panda_joint2, panda_joint3, panda_joint4, panda_joint5, panda_joint6,
  panda_joint7, panda_finger_joint1, panda_finger_joint2]
position: [0.5847279665930335, -0.4578911440978, -0.221779414087562, -2.349801666569992, -0.12547928951966433, 1.9829469496930874, 0.8789320346880316, 0.0, 0.0]
velocity: [0.10143847805102472, -0.043622279095084926, -0.003727967563495589, -0.005852404633533811, -0.0014689888510063746, -0.0022938647108681773, -0.00021458139159220662, 0.0, 0.0]
effort: [-0.4025525450706482, -14.21119213104248, 2.3528194427490234, 22.844778060913086, 0.9045324921607971, 2.701364517211914, 0.05869444087147713, 0.0, 0.0]
---
header: 
  seq: 6084
  stamp: 
    secs: 1583155845
    nsecs: 622508049
  frame_id: ''
name: [panda_joint1, panda_joint2, panda_joint3, panda_joint4, panda_joint5, panda_joint6,
  panda_joint7, panda_finger_joint1, panda_finger_joint2]
position: [0.5913513749711604, -0.45785355522172844, -0.22198650732375122, -2.351830740480753, -0.12546364970050916, 1.982573219829846, 0.8789019600528771, 0.0, 0.0]
velocity: [0.04152440439111198, 0.02976570758851479, -0.0012319302544235634, -0.038094701147386736, 3.371715780531957e-05, 0.0002623068918369359, -0.0017291747354897084, 0.0, 0.0]
effort: [-0.6762952208518982, -14.98084545135498, 2.1901607513427734, 23.059011459350586, 0.8019934296607971, 2.597909927368164, 0.14750058948993683, 0.0, 0.0]
---
header: 
  seq: 6085
  stamp: 
    secs: 1583155845
    nsecs: 722599029
  frame_id: ''
name: [panda_joint1, panda_joint2, panda_joint3, panda_joint4, panda_joint5, panda_joint6,
  panda_joint7, panda_finger_joint1, panda_finger_joint2]
position: [0.5929349390158302, -0.4532995282675707, -0.2220225448509063, -2.355276702302727, -0.12548140418123716, 1.9826037130293437, 0.8783563962329469, 0.0, 0.0]
velocity: [0.0017501189155144205, 0.053810305087448544, -0.001558024326192546, -0.01306433724908484, -0.0004966520952621621, 0.00043046081897464393, -0.027690024645998432, 0.0, 0.0]
effort: [-0.5652112364768982, -15.13953685760498, 2.4321651458740234, 23.110586166381836, 0.8917151093482971, 2.449594497680664, 0.22989805042743683, 0.0, 0.0]
---
header: 
  seq: 6086
  stamp: 
    secs: 1583155845
    nsecs: 822552919
  frame_id: ''
name: [panda_joint1, panda_joint2, panda_joint3, panda_joint4, panda_joint5, panda_joint6,
  panda_joint7, panda_finger_joint1, panda_finger_joint2]
position: [0.5929454063287105, -0.44807772172366966, -0.22239237029338604, -2.354133781156311, -0.12587203921256102, 1.9840085582862326, 0.8774864963941013, 0.0, 0.0]
velocity: [0.0011389187474008283, 0.032998403336063284, -0.0003063167826420062, 0.03469878626931743, -0.000542578730622357, 0.03342660877997377, -0.003493230427488004, 0.0, 0.0]
effort: [-0.5929822325706482, -14.77057933807373, 2.1901607513427734, 21.908498764038086, 0.9878454804420471, 2.271982192993164, 0.14750058948993683, 0.0, 0.0]
---
header: 
  seq: 6087
  stamp: 
    secs: 1583155845
    nsecs: 922542095
  frame_id: ''
name: [panda_joint1, panda_joint2, panda_joint3, panda_joint4, panda_joint5, panda_joint6,
  panda_joint7, panda_finger_joint1, panda_finger_joint2]
position: [0.5931878751684818, -0.4477376663165366, -0.22206836993059026, -2.349747584643984, -0.12588265255624817, 1.9844939632949967, 0.8774162288588511, 0.0, 0.0]
velocity: [0.013446572025938039, -0.0018696850011194455, 0.0064941061313318945, 0.05540345061631166, -0.0005176804660888874, -1.577387938813358e-05, -0.001873882732040328, 0.0, 0.0]
effort: [-0.8111829161643982, -14.29053783416748, 1.8132685422897339, 21.777578353881836, 0.8981238007545471, 2.353464126586914, 0.17313535511493683, 0.0, 0.0]
---
header: 
  seq: 6088
  stamp: 
    secs: 1583155846
    nsecs:  22475957
  frame_id: ''
name: [panda_joint1, panda_joint2, panda_joint3, panda_joint4, panda_joint5, panda_joint6,
  panda_joint7, panda_finger_joint1, panda_finger_joint2]
position: [0.5994974158724897, -0.4477640966450172, -0.22128030258105127, -2.3439059418628934, -0.12583539649312395, 1.9846905182044836, 0.8764921595114468, 0.0, 0.0]
velocity: [0.13718132730728458, -0.0020622399742662952, 0.006493753264960575, 0.04864197860612203, 0.0004326921041214057, 0.013822860592767446, -0.03022884734818336, 0.0, 0.0]
effort: [-1.3308972120285034, -14.36988353729248, 1.5712641477584839, 22.336965560913086, 0.6994543671607971, 2.228036880493164, 0.23630674183368683, 0.0, 0.0]
---
header: 
  seq: 6089
  stamp: 
    secs: 1583155846
    nsecs: 122721910
  frame_id: ''
name: [panda_joint1, panda_joint2, panda_joint3, panda_joint4, panda_joint5, panda_joint6,
  panda_joint7, panda_finger_joint1, panda_finger_joint2]
position: [0.620386119791485, -0.4492728909835947, -0.2204369630241362, -2.339382794071687, -0.12565809573062114, 1.985241781475373, 0.8744087883528897, 0.0, 0.0]
velocity: [0.2745555282899246, -0.03696288917300079, 0.011696215937163391, 0.034067259828795195, 0.0035361695461797616, 0.004205239553602139, -0.01606856772898015, 0.0, 0.0]
effort: [-1.4419811964035034, -14.18738842010498, 1.6545771360397339, 21.801382064819336, 0.5062780976295471, 2.220712661743164, 0.273843377828598, 0.0, 0.0]
---
header: 
  seq: 6090
  stamp: 
    secs: 1583155846
    nsecs: 222516059
  frame_id: ''
name: [panda_joint1, panda_joint2, panda_joint3, panda_joint4, panda_joint5, panda_joint6,
  panda_joint7, panda_finger_joint1, panda_finger_joint2]
position: [0.6567022526739338, -0.4541542958138727, -0.21907816234850908, -2.3356571840809774, -0.12524708971755816, 1.9855898554867735, 0.8739373961965293, 0.0, 0.0]
velocity: [0.4187568839180045, -0.0556848965620482, 0.024456578612762278, 0.029443289588140062, 0.015155293447888532, -0.00038566387626167575, 0.0010476268289343706, 0.0, 0.0]
effort: [-1.7712658643722534, -13.84223461151123, 1.2499140501022339, 21.829153060913086, 0.3652868866920471, 2.412973403930664, 0.04587705805897713, 0.0, 0.0]
---
header: 
  seq: 6091
  stamp: 
    secs: 1583155846
    nsecs: 322535991
  frame_id: ''
name: [panda_joint1, panda_joint2, panda_joint3, panda_joint4, panda_joint5, panda_joint6,
  panda_joint7, panda_finger_joint1, panda_finger_joint2]
position: [0.7030121656861623, -0.4597050950792092, -0.21458446034278508, -2.3346271071449793, -0.12108796970582256, 1.984723555276094, 0.8746960073927997, 0.0, 0.0]
velocity: [0.49749193666427466, -0.04721411173570605, 0.07528889183269692, -0.00045378971260983005, 0.09096378607435278, -0.008010873476134632, 0.019903013680637238, 0.0, 0.0]
effort: [-1.2237805128097534, -13.73511791229248, 1.6783808469772339, 22.178274154663086, 0.2755652070045471, 2.531076431274414, -0.07405702024698257, 0.0, 0.0]
---
header: 
  seq: 6092
  stamp: 
    secs: 1583155846
    nsecs: 422616004
  frame_id: ''
name: [panda_joint1, panda_joint2, panda_joint3, panda_joint4, panda_joint5, panda_joint6,
  panda_joint7, panda_finger_joint1, panda_finger_joint2]
position: [0.7546776019103172, -0.46283250927966585, -0.20383008426377833, -2.3345135916870885, -0.10726885075093506, 1.9846430988326453, 0.8748804785557976, 0.0, 0.0]
velocity: [0.5406718253268166, -0.01141436077860557, 0.1268121258079694, 0.006977048039799621, 0.16471504200853657, 1.5644059753712057e-05, -0.0014673198250579964, 0.0, 0.0]
effort: [-0.9500378966331482, -14.02472972869873, 1.5434931516647339, 21.936269760131836, 0.3524695038795471, 2.434946060180664, 0.04587705805897713, 0.0, 0.0]
---
header: 
  seq: 6093
  stamp: 
    secs: 1583155846
    nsecs: 522592067
  frame_id: ''
name: [panda_joint1, panda_joint2, panda_joint3, panda_joint4, panda_joint5, panda_joint6,
  panda_joint7, panda_finger_joint1, panda_finger_joint2]
position: [0.811300742004969, -0.46298429403388697, -0.1880721470059675, -2.3328949455976287, -0.08825063362336015, 1.9846432749554968, 0.8748762395851354, 0.0, 0.0]
velocity: [0.5822403827545152, -2.8648303661193505e-05, 0.1899322416535079, 0.024343328253475422, 0.17788809075996617, 0.0018892086957846168, -0.002679732402638177, 0.0, 0.0]
effort: [-1.4142102003097534, -14.02472972869873, 1.1427973508834839, 22.229848861694336, 0.5767737030982971, 2.434946060180664, 0.06510313600301743, 0.0, 0.0]
---
header: 
  seq: 6094
  stamp: 
    secs: 1583155846
    nsecs: 622437000
  frame_id: ''
name: [panda_joint1, panda_joint2, panda_joint3, panda_joint4, panda_joint5, panda_joint6,
  panda_joint7, panda_finger_joint1, panda_finger_joint2]
position: [0.8711366105787671, -0.4629692645153196, -0.1669022275474986, -2.3287787501449784, -0.07545038455961431, 1.9846704927169736, 0.8748644408584731, 0.0, 0.0]
velocity: [0.6268184596046678, 0.005122122687373103, 0.23208271215186269, 0.06482332846554899, 0.0799598131341233, 0.0017948697943508556, -0.0003560225116990331, 0.0, 0.0]
effort: [-0.7834119200706482, -14.71503734588623, 1.2221430540084839, 22.098928451538086, 0.5383215546607971, 2.375436782836914, 0.07151182740926743, 0.0, 0.0]
---
header: 
  seq: 6095
  stamp: 
    secs: 1583155846
    nsecs: 722460985
  frame_id: ''
name: [panda_joint1, panda_joint2, panda_joint3, panda_joint4, panda_joint5, panda_joint6,
  panda_joint7, panda_finger_joint1, panda_finger_joint2]
position: [0.9355378766112954, -0.4626972044406754, -0.14057700615683846, -2.321597712973667, -0.07110184159991635, 1.9847813540523134, 0.8748446515907524, 0.0, 0.0]
velocity: [0.6627616948491075, 0.0014614803834074972, 0.28322925430312795, 0.08043133812975733, 0.004282070617745892, 0.002217441135815719, 0.0018181651808602233, 0.0, 0.0]
effort: [-1.8268078565597534, -14.98084545135498, 0.09146682918071747, 22.098928451538086, 0.4101477265357971, 2.397409439086914, 0.07792051881551743, 0.0, 0.0]
---
header: 
  seq: 6096
  stamp: 
    secs: 1583155846
    nsecs: 822618007
  frame_id: ''
name: [panda_joint1, panda_joint2, panda_joint3, panda_joint4, panda_joint5, panda_joint6,
  panda_joint7, panda_finger_joint1, panda_finger_joint2]
position: [1.0028167799506484, -0.4617355384986504, -0.11149170182936355, -2.311525068403524, -0.07100746978697198, 1.984770308406469, 0.8748373181633318, 0.0, 0.0]
velocity: [0.6736164108361878, 0.01576870838255773, 0.28922505216997574, 0.09998891182175475, -0.0007059042667178893, 0.00022014567454946288, -0.0004998920063077706, 0.0, 0.0]
effort: [-0.212122842669487, -15.16730785369873, 1.2221430540084839, 22.098928451538086, 0.4614172577857971, 2.456918716430664, 0.09714659303426743, 0.0, 0.0]
---
header: 
  seq: 6097
  stamp: 
    secs: 1583155846
    nsecs: 922621965
  frame_id: ''
name: [panda_joint1, panda_joint2, panda_joint3, panda_joint4, panda_joint5, panda_joint6,
  panda_joint7, panda_finger_joint1, panda_finger_joint2]
position: [1.069497245038213, -0.45854980697286907, -0.0836571247275576, -2.300941219134318, -0.0708144742927458, 1.9847477052867528, 0.8748447099704955, 0.0, 0.0]
velocity: [0.6571686481743478, 0.03864857877660417, 0.2697697740024662, 0.09938843852260243, 0.007815504703083388, 0.001263930254767682, 0.0010885053807495578, 0.0, 0.0]
effort: [-1.4419811964035034, -15.16730785369873, -0.12276656925678253, 21.722036361694336, 0.3204260468482971, 2.442270278930664, 0.03397520259022713, 0.0, 0.0]
---
header: 
  seq: 6098
  stamp: 
    secs: 1583155847
    nsecs:  22453069
  frame_id: ''
name: [panda_joint1, panda_joint2, panda_joint3, panda_joint4, panda_joint5, panda_joint6,
  panda_joint7, panda_finger_joint1, panda_finger_joint2]
position: [1.1346832386062244, -0.4541956675956332, -0.05917026811519829, -2.291958017101694, -0.0639090682333347, 1.9847104357829872, 0.8748494781805227, 0.0, 0.0]
velocity: [0.6466711427414411, 0.042964157979592695, 0.22572620975117105, 0.0804110459295503, 0.12117811219634987, -0.0012463348139372837, 0.002168761237211611, 0.0, 0.0]
effort: [-0.5136365294456482, -15.29822826385498, 0.44058793783187866, 22.336965560913086, 0.3396521210670471, 2.649179458618164, 0.03397520259022713, 0.0, 0.0]
---
header: 
  seq: 6099
  stamp: 
    secs: 1583155847
    nsecs: 122565031
  frame_id: ''
name: [panda_joint1, panda_joint2, panda_joint3, panda_joint4, panda_joint5, panda_joint6,
  panda_joint7, panda_finger_joint1, panda_finger_joint2]
