transforms: 
  - 
    header: 
      seq: 0
      stamp: 
        secs: 1583155839
        nsecs: 122714042
      frame_id: "panda_hand"
    child_frame_id: "panda_leftfinger"
    transform: 
      translation: 
        x: 0.0
        y: 0.0
        z: 0.0584
      rotation: 
        x: 0.0
        y: 0.0
        z: 0.0
        w: 1.0
  - 
    header: 
      seq: 0
      stamp: 
        secs: 1583155839
        nsecs: 122714042
      frame_id: "panda_hand"
    child_frame_id: "panda_rightfinger"
    transform: 
      translation: 
        x: 0.0
        y: 0.0
        z: 0.0584
      rotation: 
        x: 0.0
        y: 0.0
        z: 0.0
        w: 1.0
  - 
    header: 
      seq: 0
      stamp: 
        secs: 1583155839
        nsecs: 122714042
      frame_id: "panda_link0"
    child_frame_id: "panda_link1"
    transform: 
      translation: 
        x: 0.0
        y: 0.0
        z: 0.333
      rotation: 
        x: 0.0
        y: 0.0
        z: 0.240306395381
        w: 0.970697087839
  - 
    header: 
      seq: 0
      stamp: 
        secs: 1583155839
        nsecs: 122714042
      frame_id: "panda_link1"
    child_frame_id: "panda_link2"
    transform: 
      translation: 
        x: 0.0
        y: 0.0
        z: 0.0
      rotation: 
        x: -0.687169546038
        y: -0.166727367267
        z: -0.166727367268
        w: 0.687169546041
  - 
    header: 
      seq: 0
      stamp: 
        secs: 1583155839
        nsecs: 122714042
      frame_id: "panda_link2"
    child_frame_id: "panda_link3"
    transform: 
      translation: 
        x: 0.0
        y: -0.316
        z: 0.0
      rotation: 
        x: 0.703162356179
        y: 0.0745835159444
        z: -0.0745835159447
        w: 0.703162356182
  - 
    header: 
      seq: 0
      stamp: 
        secs: 1583155839
        nsecs: 122714042
      frame_id: "panda_link3"
    child_frame_id: "panda_link4"
    transform: 
      translation: 
        x: 0.0825
        y: 0.0
        z: 0.0
      rotation: 
        x: -0.261293345977
        y: -0.65705843526
        z: 0.657058435263
        w: -0.261293345978
  - 
    header: 
      seq: 0
      stamp: 
        secs: 1583155839
        nsecs: 122714042
      frame_id: "panda_link4"
    child_frame_id: "panda_link5"
    transform: 
      translation: 
        x: -0.0825
        y: 0.384
        z: 0.0
      rotation: 
        x: -0.705134428411
        y: -0.0527772476285
        z: -0.0527772476288
        w: 0.705134428414
  - 
    header: 
      seq: 0
      stamp: 
        secs: 1583155839
        nsecs: 122714042
      frame_id: "panda_link5"
    child_frame_id: "panda_link6"
    transform: 
      translation: 
        x: 0.0
        y: 0.0
        z: 0.0
      rotation: 
        x: 0.399140084184
        y: -0.58368415534
        z: 0.583684155343
        w: 0.399140084186
  - 
    header: 
      seq: 0
      stamp: 
        secs: 1583155839
        nsecs: 122714042
      frame_id: "panda_link6"
    child_frame_id: "panda_link7"
    transform: 
      translation: 
        x: 0.088
        y: 0.0
        z: 0.0
      rotation: 
        x: 0.63758956742
        y: -0.305744245269
        z: 0.305744245271
        w: 0.637589567423
---
transforms: 
  - 
    header: 
      seq: 0
      stamp: 
        secs: 1583155839
        nsecs: 222475051
      frame_id: "panda_hand"
    child_frame_id: "panda_leftfinger"
    transform: 
      translation: 
        x: 0.0
        y: 0.0
        z: 0.0584
      rotation: 
        x: 0.0
        y: 0.0
        z: 0.0
        w: 1.0
  - 
    header: 
      seq: 0
      stamp: 
        secs: 1583155839
        nsecs: 222475051
      frame_id: "panda_hand"
    child_frame_id: "panda_rightfinger"
    transform: 
      translation: 
        x: 0.0
        y: 0.0
        z: 0.0584
      rotation: 
        x: 0.0
        y: 0.0
        z: 0.0
        w: 1.0
  - 
    header: 
      seq: 0
      stamp: 
        secs: 1583155839
        nsecs: 222475051
      frame_id: "panda_link0"
    child_frame_id: "panda_link1"
    transform: 
      translation: 
        x: 0.0
        y: 0.0
        z: 0.333
      rotation: 
        x: 0.0
        y: 0.0
        z: 0.240306094697
        w: 0.970697162276
  - 
    header: 
      seq: 0
      stamp: 
        secs: 1583155839
        nsecs: 222475051
      frame_id: "panda_link1"
    child_frame_id: "panda_link2"
    transform: 
      translation: 
        x: 0.0
        y: 0.0
        z: 0.0
      rotation: 
        x: -0.687171728607
        y: -0.166718371517
        z: -0.166718371517
        w: 0.68717172861
  - 
    header: 
      seq: 0
      stamp: 
        secs: 1583155839
        nsecs: 222475051
      frame_id: "panda_link2"
    child_frame_id: "panda_link3"
    transform: 
      translation: 
        x: 0.0
        y: -0.316
        z: 0.0
      rotation: 
        x: 0.703162281231
        y: 0.0745842225388
        z: -0.0745842225392
        w: 0.703162281234
  - 
    header: 
      seq: 0
      stamp: 
        secs: 1583155839
        nsecs: 222475051
      frame_id: "panda_link3"
    child_frame_id: "panda_link4"
    transform: 
      translation: 
        x: 0.0825
        y: 0.0
        z: 0.0
      rotation: 
        x: -0.261289254767
        y: -0.657060062202
        z: 0.657060062205
        w: -0.261289254768
  - 
    header: 
      seq: 0
      stamp: 
        secs: 1583155839
        nsecs: 222475051
      frame_id: "panda_link4"
    child_frame_id: "panda_link5"
    transform: 
      translation: 
        x: -0.0825
        y: 0.384
        z: 0.0
      rotation: 
        x: -0.705134413672
        y: -0.0527774445496
        z: -0.0527774445499
        w: 0.705134413675
  - 
    header: 
      seq: 0
      stamp: 
        secs: 1583155839
        nsecs: 222475051
      frame_id: "panda_link5"
    child_frame_id: "panda_link6"
    transform: 
      translation: 
        x: 0.0
        y: 0.0
        z: 0.0
      rotation: 
        x: 0.399143223124
        y: -0.58368200883
        z: 0.583682008833
        w: 0.399143223126
  - 
    header: 
      seq: 0
      stamp: 
        secs: 1583155839
        nsecs: 222475051
      frame_id: "panda_link6"
    child_frame_id: "panda_link7"
    transform: 
      translation: 
        x: 0.088
        y: 0.0
        z: 0.0
      rotation: 
        x: 0.637589919321
        y: -0.305743511424
        z: 0.305743511425
        w: 0.637589919324
---
transforms: 
  - 
    header: 
      seq: 0
      stamp: 
        secs: 1583155839
        nsecs: 322525978
      frame_id: "panda_hand"
    child_frame_id: "panda_leftfinger"
    transform: 
      translation: 
        x: 0.0
        y: 0.0
        z: 0.0584
      rotation: 
        x: 0.0
        y: 0.0
        z: 0.0
        w: 1.0
  - 
    header: 
      seq: 0
      stamp: 
        secs: 1583155839
        nsecs: 322525978
      frame_id: "panda_hand"
    child_frame_id: "panda_rightfinger"
    transform: 
      translation: 
        x: 0.0
        y: 0.0
        z: 0.0584
      rotation: 
        x: 0.0
        y: 0.0
        z: 0.0
        w: 1.0
  - 
    header: 
      seq: 0
      stamp: 
        secs: 1583155839
        nsecs: 322525978
      frame_id: "panda_link0"
    child_frame_id: "panda_link1"
    transform: 
      translation: 
        x: 0.0
        y: 0.0
        z: 0.333
      rotation: 
        x: 0.0
        y: 0.0
        z: 0.240313969225
        w: 0.970695212822
  - 
    header: 
      seq: 0
      stamp: 
        secs: 1583155839
        nsecs: 322525978
      frame_id: "panda_link1"
    child_frame_id: "panda_link2"
    transform: 
      translation: 
        x: 0.0
        y: 0.0
        z: 0.0
      rotation: 
        x: -0.687171984824
        y: -0.166717315451
        z: -0.166717315451
        w: 0.687171984827
  - 
    header: 
      seq: 0
      stamp: 
        secs: 1583155839
        nsecs: 322525978
      frame_id: "panda_link2"
    child_frame_id: "panda_link3"
    transform: 
      translation: 
        x: 0.0
        y: -0.316
        z: 0.0
      rotation: 
        x: 0.7031634191
        y: 0.0745734941977
        z: -0.0745734941981
        w: 0.703163419104
  - 
    header: 
      seq: 0
      stamp: 
        secs: 1583155839
        nsecs: 322525978
      frame_id: "panda_link3"
    child_frame_id: "panda_link4"
    transform: 
      translation: 
        x: 0.0825
        y: 0.0
        z: 0.0
      rotation: 
        x: -0.26129130266
        y: -0.657059247824
        z: 0.657059247828
        w: -0.261291302661
  - 
    header: 
      seq: 0
      stamp: 
        secs: 1583155839
        nsecs: 322525978
      frame_id: "panda_link4"
    child_frame_id: "panda_link5"
    transform: 
      translation: 
        x: -0.0825
        y: 0.384
        z: 0.0
      rotation: 
        x: -0.705134432231
        y: -0.0527771965888
        z: -0.052777196589
        w: 0.705134432234
  - 
    header: 
      seq: 0
      stamp: 
        secs: 1583155839
        nsecs: 322525978
      frame_id: "panda_link5"
    child_frame_id: "panda_link6"
    transform: 
      translation: 
        x: 0.0
        y: 0.0
        z: 0.0
      rotation: 
        x: 0.39914152963
        y: -0.5836831669
        z: 0.583683166903
        w: 0.399141529632
  - 
    header: 
      seq: 0
      stamp: 
        secs: 1583155839
        nsecs: 322525978
      frame_id: "panda_link6"
    child_frame_id: "panda_link7"
    transform: 
      translation: 
        x: 0.088
        y: 0.0
        z: 0.0
      rotation: 
        x: 0.637589353357
        y: -0.305744691668
        z: 0.305744691669
        w: 0.63758935336
---
transforms: 
  - 
    header: 
      seq: 0
      stamp: 
        secs: 1583155839
        nsecs: 422517061
      frame_id: "panda_hand"
    child_frame_id: "panda_leftfinger"
    transform: 
      translation: 
        x: 0.0
        y: 0.0
        z: 0.0584
      rotation: 
        x: 0.0
        y: 0.0
        z: 0.0
        w: 1.0
  - 
    header: 
      seq: 0
      stamp: 
        secs: 1583155839
        nsecs: 422517061
      frame_id: "panda_hand"
    child_frame_id: "panda_rightfinger"
    transform: 
      translation: 
        x: 0.0
        y: 0.0
        z: 0.0584
      rotation: 
        x: 0.0
        y: 0.0
        z: 0.0
        w: 1.0
  - 
    header: 
      seq: 0
      stamp: 
        secs: 1583155839
        nsecs: 422517061
      frame_id: "panda_link0"
    child_frame_id: "panda_link1"
    transform: 
      translation: 
        x: 0.0
        y: 0.0
        z: 0.333
      rotation: 
        x: 0.0
        y: 0.0
        z: 0.24030958235
        w: 0.970696298865
  - 
    header: 
      seq: 0
      stamp: 
        secs: 1583155839
        nsecs: 422517061
      frame_id: "panda_link1"
    child_frame_id: "panda_link2"
    transform: 
      translation: 
        x: 0.0
        y: 0.0
        z: 0.0
      rotation: 
        x: -0.687171391107
        y: -0.166719762601
        z: -0.166719762602
        w: 0.68717139111
  - 
    header: 
      seq: 0
      stamp: 
        secs: 1583155839
        nsecs: 422517061
      frame_id: "panda_link2"
    child_frame_id: "panda_link3"
    transform: 
      translation: 
        x: 0.0
        y: -0.316
        z: 0.0
      rotation: 
        x: 0.70316239792
        y: 0.0745831224118
        z: -0.0745831224122
        w: 0.703162397924
  - 
    header: 
      seq: 0
      stamp: 
        secs: 1583155839
        nsecs: 422517061
      frame_id: "panda_link3"
    child_frame_id: "panda_link4"
    transform: 
      translation: 
        x: 0.0825
        y: 0.0
        z: 0.0
      rotation: 
        x: -0.261291568808
        y: -0.657059141986
        z: 0.657059141989
        w: -0.261291568809
  - 
    header: 
      seq: 0
      stamp: 
        secs: 1583155839
        nsecs: 422517061
      frame_id: "panda_link4"
    child_frame_id: "panda_link5"
    transform: 
      translation: 
        x: -0.0825
        y: 0.384
        z: 0.0
      rotation: 
        x: -0.705134394534
        y: -0.0527777002457
        z: -0.0527777002459
        w: 0.705134394537
  - 
    header: 
      seq: 0
      stamp: 
        secs: 1583155839
        nsecs: 422517061
      frame_id: "panda_link5"
    child_frame_id: "panda_link6"
    transform: 
      translation: 
        x: 0.0
        y: 0.0
        z: 0.0
      rotation: 
        x: 0.399142696694
        y: -0.583682368822
        z: 0.583682368825
        w: 0.399142696696
  - 
    header: 
      seq: 0
      stamp: 
        secs: 1583155839
        nsecs: 422517061
      frame_id: "panda_link6"
    child_frame_id: "panda_link7"
    transform: 
      translation: 
        x: 0.088
        y: 0.0
        z: 0.0
      rotation: 
        x: 0.637589903648
        y: -0.305743544107
        z: 0.305743544109
        w: 0.637589903652
---
transforms: 
  - 
    header: 
      seq: 0
      stamp: 
        secs: 1583155839
        nsecs: 522535085
      frame_id: "panda_hand"
    child_frame_id: "panda_leftfinger"
    transform: 
      translation: 
        x: 0.0
        y: 0.0
        z: 0.0584
      rotation: 
        x: 0.0
        y: 0.0
        z: 0.0
        w: 1.0
  - 
    header: 
      seq: 0
      stamp: 
        secs: 1583155839
        nsecs: 522535085
      frame_id: "panda_hand"
    child_frame_id: "panda_rightfinger"
    transform: 
      translation: 
        x: 0.0
        y: 0.0
        z: 0.0584
      rotation: 
        x: 0.0
        y: 0.0
        z: 0.0
        w: 1.0
  - 
    header: 
      seq: 0
      stamp: 
        secs: 1583155839
        nsecs: 522535085
      frame_id: "panda_link0"
    child_frame_id: "panda_link1"
    transform: 
      translation: 
        x: 0.0
        y: 0.0
        z: 0.333
      rotation: 
        x: 0.0
        y: 0.0
        z: 0.240307682021
        w: 0.970696769317
  - 
    header: 
      seq: 0
      stamp: 
        secs: 1583155839
        nsecs: 522535085
      frame_id: "panda_link1"
    child_frame_id: "panda_link2"
    transform: 
      translation: 
        x: 0.0
        y: 0.0
        z: 0.0
      rotation: 
        x: -0.687171659331
        y: -0.166718657056
        z: -0.166718657056
        w: 0.687171659334
  - 
    header: 
      seq: 0
      stamp: 
        secs: 1583155839
        nsecs: 522535085
      frame_id: "panda_link2"
    child_frame_id: "panda_link3"
    transform: 
      translation: 
        x: 0.0
        y: -0.316
        z: 0.0
      rotation: 
        x: 0.703162237114
        y: 0.074584638457
        z: -0.0745846384574
        w: 0.703162237118
  - 
    header: 
      seq: 0
      stamp: 
        secs: 1583155839
        nsecs: 522535085
      frame_id: "panda_link3"
    child_frame_id: "panda_link4"
    transform: 
      translation: 
        x: 0.0825
        y: 0.0
        z: 0.0
      rotation: 
        x: -0.261289270048
        y: -0.657060056125
        z: 0.657060056129
        w: -0.261289270049
  - 
    header: 
      seq: 0
      stamp: 
        secs: 1583155839
        nsecs: 522535085
      frame_id: "panda_link4"
    child_frame_id: "panda_link5"
    transform: 
      translation: 
        x: -0.0825
        y: 0.384
        z: 0.0
      rotation: 
        x: -0.705134413324
        y: -0.0527774491907
        z: -0.052777449191
        w: 0.705134413328
  - 
    header: 
      seq: 0
      stamp: 
        secs: 1583155839
        nsecs: 522535085
      frame_id: "panda_link5"
    child_frame_id: "panda_link6"
    transform: 
      translation: 
        x: 0.0
        y: 0.0
        z: 0.0
      rotation: 
        x: 0.399142376225
        y: -0.58368258797
        z: 0.583682587972
        w: 0.399142376227
  - 
    header: 
      seq: 0
      stamp: 
        secs: 1583155839
        nsecs: 522535085
      frame_id: "panda_link6"
    child_frame_id: "panda_link7"
    transform: 
      translation: 
        x: 0.088
        y: 0.0
        z: 0.0
      rotation: 
        x: 0.637589363735
        y: -0.305744670027
        z: 0.305744670029
        w: 0.637589363738
---
transforms: 
  - 
    header: 
      seq: 0
      stamp: 
        secs: 1583155839
        nsecs: 622479915
      frame_id: "panda_hand"
    child_frame_id: "panda_leftfinger"
    transform: 
      translation: 
        x: 0.0
        y: 0.0
        z: 0.0584
      rotation: 
        x: 0.0
        y: 0.0
        z: 0.0
        w: 1.0
  - 
    header: 
      seq: 0
      stamp: 
        secs: 1583155839
        nsecs: 622479915
      frame_id: "panda_hand"
    child_frame_id: "panda_rightfinger"
    transform: 
      translation: 
        x: 0.0
        y: 0.0
        z: 0.0584
      rotation: 
        x: 0.0
        y: 0.0
        z: 0.0
        w: 1.0
  - 
    header: 
      seq: 0
      stamp: 
        secs: 1583155839
        nsecs: 622479915
      frame_id: "panda_link0"
    child_frame_id: "panda_link1"
    transform: 
      translation: 
        x: 0.0
        y: 0.0
        z: 0.333
      rotation: 
        x: 0.0
        y: 0.0
        z: 0.240309239724
        w: 0.970696383687
  - 
    header: 
      seq: 0
      stamp: 
        secs: 1583155839
        nsecs: 622479915
      frame_id: "panda_link1"
    child_frame_id: "panda_link2"
    transform: 
      translation: 
        x: 0.0
        y: 0.0
        z: 0.0
      rotation: 
        x: -0.68717219094
        y: -0.166716465881
        z: -0.166716465882
        w: 0.687172190944
  - 
    header: 
      seq: 0
      stamp: 
        secs: 1583155839
        nsecs: 622479915
      frame_id: "panda_link2"
    child_frame_id: "panda_link3"
    transform: 
      translation: 
        x: 0.0
        y: -0.316
        z: 0.0
      rotation: 
        x: 0.703162569669
        y: 0.0745815031612
        z: -0.0745815031616
        w: 0.703162569673
  - 
    header: 
      seq: 0
      stamp: 
        secs: 1583155839
        nsecs: 622479915
      frame_id: "panda_link3"
    child_frame_id: "panda_link4"
    transform: 
      translation: 
        x: 0.0825
        y: 0.0
        z: 0.0
      rotation: 
        x: -0.261288720925
        y: -0.657060274492
        z: 0.657060274495
        w: -0.261288720926
  - 
    header: 
      seq: 0
      stamp: 
        secs: 1583155839
        nsecs: 622479915
      frame_id: "panda_link4"
    child_frame_id: "panda_link5"
    transform: 
      translation: 
        x: -0.0825
        y: 0.384
        z: 0.0
      rotation: 
        x: -0.705134450906
        y: -0.0527769470808
        z: -0.0527769470811
        w: 0.705134450909
  - 
    header: 
      seq: 0
      stamp: 
        secs: 1583155839
        nsecs: 622479915
      frame_id: "panda_link5"
    child_frame_id: "panda_link6"
    transform: 
      translation: 
        x: 0.0
        y: 0.0
        z: 0.0
      rotation: 
        x: 0.399142524719
        y: -0.583682486424
        z: 0.583682486427
        w: 0.399142524721
  - 
    header: 
      seq: 0
      stamp: 
        secs: 1583155839
        nsecs: 622479915
      frame_id: "panda_link6"
    child_frame_id: "panda_link7"
    transform: 
      translation: 
        x: 0.088
        y: 0.0
        z: 0.0
      rotation: 
        x: 0.637589482237
        y: -0.305744422906
        z: 0.305744422908
        w: 0.63758948224
---
transforms: 
  - 
    header: 
      seq: 0
      stamp: 
        secs: 1583155839
        nsecs: 722553014
      frame_id: "panda_hand"
    child_frame_id: "panda_leftfinger"
    transform: 
      translation: 
        x: 0.0
        y: 0.0
        z: 0.0584
      rotation: 
        x: 0.0
        y: 0.0
        z: 0.0
        w: 1.0
  - 
    header: 
      seq: 0
      stamp: 
        secs: 1583155839
        nsecs: 722553014
      frame_id: "panda_hand"
    child_frame_id: "panda_rightfinger"
    transform: 
      translation: 
        x: 0.0
        y: 0.0
        z: 0.0584
      rotation: 
        x: 0.0
        y: 0.0
        z: 0.0
        w: 1.0
  - 
    header: 
      seq: 0
      stamp: 
        secs: 1583155839
        nsecs: 722553014
      frame_id: "panda_link0"
    child_frame_id: "panda_link1"
    transform: 
      translation: 
        x: 0.0
        y: 0.0
        z: 0.333
      rotation: 
        x: 0.0
        y: 0.0
        z: 0.240304975256
        w: 0.970697439405
  - 
    header: 
      seq: 0
      stamp: 
        secs: 1583155839
        nsecs: 722553014
      frame_id: "panda_link1"
    child_frame_id: "panda_link2"
    transform: 
      translation: 
        x: 0.0
        y: 0.0
        z: 0.0
      rotation: 
        x: -0.687171740706
        y: -0.166718321648
        z: -0.166718321649
        w: 0.687171740709
  - 
    header: 
      seq: 0
      stamp: 
        secs: 1583155839
        nsecs: 722553014
      frame_id: "panda_link2"
    child_frame_id: "panda_link3"
    transform: 
      translation: 
        x: 0.0
        y: -0.316
        z: 0.0
      rotation: 
        x: 0.703161722782
        y: 0.0745894872701
        z: -0.0745894872705
        w: 0.703161722786
  - 
    header: 
      seq: 0
      stamp: 
        secs: 1583155839
        nsecs: 722553014
      frame_id: "panda_link3"
    child_frame_id: "panda_link4"
    transform: 
      translation: 
        x: 0.0825
        y: 0.0
        z: 0.0
      rotation: 
        x: -0.261290947107
        y: -0.657059389216
        z: 0.657059389219
        w: -0.261290947109
  - 
    header: 
      seq: 0
      stamp: 
        secs: 1583155839
        nsecs: 722553014
      frame_id: "panda_link4"
    child_frame_id: "panda_link5"
    transform: 
      translation: 
        x: -0.0825
        y: 0.384
        z: 0.0
      rotation: 
        x: -0.705134357994
        y: -0.0527781884322
        z: -0.0527781884325
        w: 0.705134357997
  - 
    header: 
      seq: 0
      stamp: 
        secs: 1583155839
        nsecs: 722553014
      frame_id: "panda_link5"
    child_frame_id: "panda_link6"
    transform: 
      translation: 
        x: 0.0
        y: 0.0
        z: 0.0
      rotation: 
        x: 0.399142034322
        y: -0.583682821775
        z: 0.583682821778
        w: 0.399142034324
  - 
    header: 
      seq: 0
      stamp: 
        secs: 1583155839
        nsecs: 722553014
      frame_id: "panda_link6"
    child_frame_id: "panda_link7"
    transform: 
      translation: 
        x: 0.088
        y: 0.0
        z: 0.0
      rotation: 
        x: 0.637588832622
        y: -0.305745777589
        z: 0.305745777591
        w: 0.637588832625
---
transforms: 
  - 
    header: 
      seq: 0
      stamp: 
        secs: 1583155839
        nsecs: 822510004
      frame_id: "panda_hand"
    child_frame_id: "panda_leftfinger"
    transform: 
      translation: 
        x: 0.0
        y: 0.0
        z: 0.0584
      rotation: 
        x: 0.0
        y: 0.0
        z: 0.0
        w: 1.0
  - 
    header: 
      seq: 0
      stamp: 
        secs: 1583155839
        nsecs: 822510004
      frame_id: "panda_hand"
    child_frame_id: "panda_rightfinger"
    transform: 
      translation: 
        x: 0.0
        y: 0.0
        z: 0.0584
      rotation: 
        x: 0.0
        y: 0.0
        z: 0.0
        w: 1.0
  - 
    header: 
      seq: 0
      stamp: 
        secs: 1583155839
        nsecs: 822510004
      frame_id: "panda_link0"
    child_frame_id: "panda_link1"
    transform: 
      translation: 
        x: 0.0
        y: 0.0
        z: 0.333
      rotation: 
        x: 0.0
        y: 0.0
        z: 0.240306732368
        w: 0.970697004414
  - 
    header: 
      seq: 0
      stamp: 
        secs: 1583155839
        nsecs: 822510004
      frame_id: "panda_link1"
    child_frame_id: "panda_link2"
    transform: 
      translation: 
        x: 0.0
        y: 0.0
        z: 0.0
      rotation: 
        x: -0.687172004371
        y: -0.16671723488
        z: -0.166717234881
        w: 0.687172004374
  - 
    header: 
      seq: 0
      stamp: 
        secs: 1583155839
        nsecs: 822510004
      frame_id: "panda_link2"
    child_frame_id: "panda_link3"
    transform: 
      translation: 
        x: 0.0
        y: -0.316
        z: 0.0
      rotation: 
        x: 0.703162310933
        y: 0.0745839425156
        z: -0.074583942516
        w: 0.703162310936
  - 
    header: 
      seq: 0
      stamp: 
        secs: 1583155839
        nsecs: 822510004
      frame_id: "panda_link3"
    child_frame_id: "panda_link4"
    transform: 
      translation: 
        x: 0.0825
        y: 0.0
        z: 0.0
      rotation: 
        x: -0.261290438237
        y: -0.657059591577
        z: 0.65705959158
        w: -0.261290438238
  - 
    header: 
      seq: 0
      stamp: 
        secs: 1583155839
        nsecs: 822510004
      frame_id: "panda_link4"
    child_frame_id: "panda_link5"
    transform: 
      translation: 
        x: -0.0825
        y: 0.384
        z: 0.0
      rotation: 
        x: -0.705134478945
        y: -0.0527765724598
        z: -0.05277657246
        w: 0.705134478948
  - 
    header: 
      seq: 0
      stamp: 
        secs: 1583155839
        nsecs: 822510004
      frame_id: "panda_link5"
    child_frame_id: "panda_link6"
    transform: 
      translation: 
        x: 0.0
        y: 0.0
        z: 0.0
      rotation: 
        x: 0.399141767257
        y: -0.583683004403
        z: 0.583683004406
        w: 0.399141767259
  - 
    header: 
      seq: 0
      stamp: 
        secs: 1583155839
        nsecs: 822510004
      frame_id: "panda_link6"
    child_frame_id: "panda_link7"
    transform: 
      translation: 
        x: 0.088
        y: 0.0
        z: 0.0
      rotation: 
        x: 0.637589571295
        y: -0.305744237187
        z: 0.305744237188
        w: 0.637589571298
---
transforms: 
  - 
    header: 
      seq: 0
      stamp: 
        secs: 1583155839
        nsecs: 922569036
      frame_id: "panda_hand"
    child_frame_id: "panda_leftfinger"
    transform: 
      translation: 
        x: 0.0
        y: 0.0
        z: 0.0584
      rotation: 
        x: 0.0
        y: 0.0
        z: 0.0
        w: 1.0
  - 
    header: 
      seq: 0
      stamp: 
        secs: 1583155839
        nsecs: 922569036
      frame_id: "panda_hand"
    child_frame_id: "panda_rightfinger"
    transform: 
      translation: 
        x: 0.0
        y: 0.0
        z: 0.0584
      rotation: 
        x: 0.0
        y: 0.0
        z: 0.0
        w: 1.0
  - 
    header: 
      seq: 0
      stamp: 
        secs: 1583155839
        nsecs: 922569036
      frame_id: "panda_link0"
    child_frame_id: "panda_link1"
    transform: 
      translation: 
        x: 0.0
        y: 0.0
        z: 0.333
      rotation: 
        x: 0.0
        y: 0.0
        z: 0.240311131615
        w: 0.970695915322
  - 
    header: 
      seq: 0
      stamp: 
        secs: 1583155839
        nsecs: 922569036
      frame_id: "panda_link1"
    child_frame_id: "panda_link2"
    transform: 
      translation: 
        x: 0.0
        y: 0.0
        z: 0.0
      rotation: 
        x: -0.687172470459
        y: -0.166715313758
        z: -0.166715313759
        w: 0.687172470462
  - 
    header: 
      seq: 0
      stamp: 
        secs: 1583155839
        nsecs: 922569036
      frame_id: "panda_link2"
    child_frame_id: "panda_link3"
    transform: 
      translation: 
        x: 0.0
        y: -0.316
        z: 0.0
      rotation: 
        x: 0.703162781544
        y: 0.0745795055522
        z: -0.0745795055526
        w: 0.703162781548
  - 
    header: 
      seq: 0
      stamp: 
        secs: 1583155839
        nsecs: 922569036
      frame_id: "panda_link3"
    child_frame_id: "panda_link4"
    transform: 
      translation: 
        x: 0.0825
        y: 0.0
        z: 0.0
      rotation: 
        x: -0.261288173846
        y: -0.657060492045
        z: 0.657060492048
        w: -0.261288173847
  - 
    header: 
      seq: 0
      stamp: 
        secs: 1583155839
        nsecs: 922569036
      frame_id: "panda_link4"
    child_frame_id: "panda_link5"
    transform: 
      translation: 
        x: -0.0825
        y: 0.384
        z: 0.0
      rotation: 
        x: -0.705134403913
        y: -0.0527775749361
        z: -0.0527775749364
        w: 0.705134403916
  - 
    header: 
      seq: 0
      stamp: 
        secs: 1583155839
        nsecs: 922569036
      frame_id: "panda_link5"
    child_frame_id: "panda_link6"
    transform: 
      translation: 
        x: 0.0
        y: 0.0
        z: 0.0
      rotation: 
        x: 0.399143438476
        y: -0.583681861564
        z: 0.583681861567
        w: 0.399143438478
  - 
    header: 
      seq: 0
      stamp: 
        secs: 1583155839
        nsecs: 922569036
      frame_id: "panda_link6"
    child_frame_id: "panda_link7"
    transform: 
      translation: 
        x: 0.088
        y: 0.0
        z: 0.0
      rotation: 
        x: 0.63759016656
        y: -0.305742995836
        z: 0.305742995838
        w: 0.637590166564
---
transforms: 
  - 
    header: 
      seq: 0
      stamp: 
        secs: 1583155840
        nsecs:  22486925
      frame_id: "panda_hand"
    child_frame_id: "panda_leftfinger"
    transform: 
      translation: 
        x: 0.0
        y: 0.0
        z: 0.0584
      rotation: 
        x: 0.0
        y: 0.0
        z: 0.0
        w: 1.0
  - 
    header: 
      seq: 0
      stamp: 
        secs: 1583155840
        nsecs:  22486925
      frame_id: "panda_hand"
    child_frame_id: "panda_rightfinger"
    transform: 
      translation: 
        x: 0.0
        y: 0.0
        z: 0.0584
      rotation: 
        x: 0.0
        y: 0.0
        z: 0.0
        w: 1.0
  - 
    header: 
      seq: 0
      stamp: 
        secs: 1583155840
        nsecs:  22486925
      frame_id: "panda_link0"
    child_frame_id: "panda_link1"
    transform: 
      translation: 
        x: 0.0
        y: 0.0
        z: 0.333
      rotation: 
        x: 0.0
        y: 0.0
        z: 0.240307692498
        w: 0.970696766723
  - 
    header: 
      seq: 0
      stamp: 
        secs: 1583155840
        nsecs:  22486925
      frame_id: "panda_link1"
    child_frame_id: "panda_link2"
    transform: 
      translation: 
        x: 0.0
        y: 0.0
        z: 0.0
      rotation: 
        x: -0.687172248235
        y: -0.166716229725
        z: -0.166716229726
        w: 0.687172248238
  - 
    header: 
      seq: 0
      stamp: 
        secs: 1583155840
        nsecs:  22486925
      frame_id: "panda_link2"
    child_frame_id: "panda_link3"
    transform: 
      translation: 
        x: 0.0
        y: -0.316
        z: 0.0
      rotation: 
        x: 0.703162309791
        y: 0.074583953281
        z: -0.0745839532814
        w: 0.703162309794
  - 
    header: 
      seq: 0
      stamp: 
        secs: 1583155840
        nsecs:  22486925
      frame_id: "panda_link3"
    child_frame_id: "panda_link4"
    transform: 
      translation: 
        x: 0.0825
        y: 0.0
        z: 0.0
      rotation: 
        x: -0.261288813713
        y: -0.657060237593
        z: 0.657060237596
        w: -0.261288813715
  - 
    header: 
      seq: 0
      stamp: 
        secs: 1583155840
        nsecs:  22486925
      frame_id: "panda_link4"
    child_frame_id: "panda_link5"
    transform: 
      translation: 
        x: -0.0825
        y: 0.384
        z: 0.0
      rotation: 
        x: -0.705134394534
        y: -0.0527777002457
        z: -0.0527777002459
        w: 0.705134394537
  - 
    header: 
      seq: 0
      stamp: 
        secs: 1583155840
        nsecs:  22486925
      frame_id: "panda_link5"
    child_frame_id: "panda_link6"
    transform: 
      translation: 
        x: 0.0
        y: 0.0
        z: 0.0
      rotation: 
        x: 0.399142116302
        y: -0.583682765714
        z: 0.583682765717
        w: 0.399142116304
  - 
    header: 
      seq: 0
      stamp: 
        secs: 1583155840
        nsecs:  22486925
      frame_id: "panda_link6"
    child_frame_id: "panda_link7"
    transform: 
      translation: 
        x: 0.088
        y: 0.0
        z: 0.0
      rotation: 
        x: 0.637589137667
        y: -0.30574514146
        z: 0.305745141462
        w: 0.63758913767
---
transforms: 
  - 
    header: 
      seq: 0
      stamp: 
        secs: 1583155840
        nsecs: 122494935
      frame_id: "panda_hand"
    child_frame_id: "panda_leftfinger"
    transform: 
      translation: 
        x: 0.0
        y: 0.0
        z: 0.0584
      rotation: 
        x: 0.0
        y: 0.0
        z: 0.0
        w: 1.0
  - 
    header: 
      seq: 0
      stamp: 
        secs: 1583155840
        nsecs: 122494935
      frame_id: "panda_hand"
    child_frame_id: "panda_rightfinger"
    transform: 
      translation: 
        x: 0.0
        y: 0.0
        z: 0.0584
      rotation: 
        x: 0.0
        y: 0.0
        z: 0.0
        w: 1.0
  - 
    header: 
      seq: 0
      stamp: 
        secs: 1583155840
        nsecs: 122494935
      frame_id: "panda_link0"
    child_frame_id: "panda_link1"
    transform: 
      translation: 
        x: 0.0
        y: 0.0
        z: 0.333
      rotation: 
        x: 0.0
        y: 0.0
        z: 0.240309239919
        w: 0.970696383639
  - 
    header: 
      seq: 0
      stamp: 
        secs: 1583155840
        nsecs: 122494935
      frame_id: "panda_link1"
    child_frame_id: "panda_link2"
    transform: 
      translation: 
        x: 0.0
        y: 0.0
        z: 0.0
      rotation: 
        x: -0.687172980563
        y: -0.166713211181
        z: -0.166713211182
        w: 0.687172980566
  - 
    header: 
      seq: 0
      stamp: 
        secs: 1583155840
        nsecs: 122494935
      frame_id: "panda_link2"
    child_frame_id: "panda_link3"
    transform: 
      translation: 
        x: 0.0
        y: -0.316
        z: 0.0
      rotation: 
        x: 0.703162621016
        y: 0.0745810190536
        z: -0.0745810190539
        w: 0.70316262102
  - 
    header: 
      seq: 0
      stamp: 
        secs: 1583155840
        nsecs: 122494935
      frame_id: "panda_link3"
    child_frame_id: "panda_link4"
    transform: 
      translation: 
        x: 0.0825
        y: 0.0
        z: 0.0
      rotation: 
        x: -0.261285703909
        y: -0.65706147424
        z: 0.657061474243
        w: -0.26128570391
  - 
    header: 
      seq: 0
      stamp: 
        secs: 1583155840
        nsecs: 122494935
      frame_id: "panda_link4"
    child_frame_id: "panda_link5"
    transform: 
      translation: 
        x: -0.0825
        y: 0.384
        z: 0.0
      rotation: 
        x: -0.705134394551
        y: -0.0527777000101
        z: -0.0527777000104
        w: 0.705134394555
  - 
    header: 
      seq: 0
      stamp: 
        secs: 1583155840
        nsecs: 122494935
      frame_id: "panda_link5"
    child_frame_id: "panda_link6"
    transform: 
      translation: 
        x: 0.0
        y: 0.0
        z: 0.0
      rotation: 
        x: 0.399143545233
        y: -0.58368178856
        z: 0.583681788563
        w: 0.399143545235
  - 
    header: 
      seq: 0
      stamp: 
        secs: 1583155840
        nsecs: 122494935
      frame_id: "panda_link6"
    child_frame_id: "panda_link7"
    transform: 
      translation: 
        x: 0.088
        y: 0.0
        z: 0.0
      rotation: 
        x: 0.637590275416
        y: -0.305742768831
        z: 0.305742768833
        w: 0.637590275419
---
transforms: 
  - 
    header: 
      seq: 0
      stamp: 
        secs: 1583155840
        nsecs: 222537040
      frame_id: "panda_hand"
    child_frame_id: "panda_leftfinger"
    transform: 
      translation: 
        x: 0.0
        y: 0.0
        z: 0.0584
      rotation: 
        x: 0.0
        y: 0.0
        z: 0.0
        w: 1.0
  - 
    header: 
      seq: 0
      stamp: 
        secs: 1583155840
        nsecs: 222537040
      frame_id: "panda_hand"
    child_frame_id: "panda_rightfinger"
    transform: 
      translation: 
        x: 0.0
        y: 0.0
        z: 0.0584
      rotation: 
        x: 0.0
        y: 0.0
        z: 0.0
        w: 1.0
  - 
    header: 
      seq: 0
      stamp: 
        secs: 1583155840
        nsecs: 222537040
      frame_id: "panda_link0"
    child_frame_id: "panda_link1"
    transform: 
      translation: 
        x: 0.0
        y: 0.0
        z: 0.333
      rotation: 
        x: 0.0
        y: 0.0
        z: 0.240313023367
        w: 0.970695446986
  - 
    header: 
      seq: 0
      stamp: 
        secs: 1583155840
        nsecs: 222537040
      frame_id: "panda_link1"
    child_frame_id: "panda_link2"
    transform: 
      translation: 
        x: 0.0
        y: 0.0
        z: 0.0
      rotation: 
        x: -0.687172492663
        y: -0.166715222235
        z: -0.166715222236
        w: 0.687172492666
  - 
    header: 
      seq: 0
      stamp: 
        secs: 1583155840
        nsecs: 222537040
      frame_id: "panda_link2"
    child_frame_id: "panda_link3"
    transform: 
      translation: 
        x: 0.0
        y: -0.316
        z: 0.0
      rotation: 
        x: 0.703162636349
        y: 0.0745808744954
        z: -0.0745808744958
        w: 0.703162636352
  - 
    header: 
      seq: 0
      stamp: 
        secs: 1583155840
        nsecs: 222537040
      frame_id: "panda_link3"
    child_frame_id: "panda_link4"
    transform: 
      translation: 
        x: 0.0825
        y: 0.0
        z: 0.0
      rotation: 
        x: -0.261287398391
        y: -0.657060800413
        z: 0.657060800416
        w: -0.261287398392
  - 
    header: 
      seq: 0
      stamp: 
        secs: 1583155840
        nsecs: 222537040
      frame_id: "panda_link4"
    child_frame_id: "panda_link5"
    transform: 
      translation: 
        x: -0.0825
        y: 0.384
        z: 0.0
      rotation: 
        x: -0.705134582451
        y: -0.0527751895234
        z: -0.0527751895237
        w: 0.705134582454
  - 
    header: 
      seq: 0
      stamp: 
        secs: 1583155840
        nsecs: 222537040
      frame_id: "panda_link5"
    child_frame_id: "panda_link6"
    transform: 
      translation: 
        x: 0.0
        y: 0.0
        z: 0.0
      rotation: 
        x: 0.399140579608
        y: -0.583683816554
        z: 0.583683816557
        w: 0.39914057961
  - 
    header: 
      seq: 0
      stamp: 
        secs: 1583155840
        nsecs: 222537040
      frame_id: "panda_link6"
    child_frame_id: "panda_link7"
    transform: 
      translation: 
        x: 0.088
        y: 0.0
        z: 0.0
      rotation: 
        x: 0.637588722465
        y: -0.305746007305
        z: 0.305746007307
        w: 0.637588722468
---
transforms: 
  - 
    header: 
      seq: 0
      stamp: 
        secs: 1583155840
        nsecs: 322495937
      frame_id: "panda_hand"
    child_frame_id: "panda_leftfinger"
    transform: 
      translation: 
        x: 0.0
        y: 0.0
        z: 0.0584
      rotation: 
        x: 0.0
        y: 0.0
        z: 0.0
        w: 1.0
  - 
    header: 
      seq: 0
      stamp: 
        secs: 1583155840
        nsecs: 322495937
      frame_id: "panda_hand"
    child_frame_id: "panda_rightfinger"
    transform: 
      translation: 
        x: 0.0
        y: 0.0
        z: 0.0584
      rotation: 
        x: 0.0
        y: 0.0
        z: 0.0
        w: 1.0
  - 
    header: 
      seq: 0
      stamp: 
        secs: 1583155840
        nsecs: 322495937
      frame_id: "panda_link0"
    child_frame_id: "panda_link1"
    transform: 
      translation: 
        x: 0.0
        y: 0.0
        z: 0.333
      rotation: 
        x: 0.0
        y: 0.0
        z: 0.240389010886
        w: 0.97067663176
  - 
    header: 
      seq: 0
      stamp: 
        secs: 1583155840
        nsecs: 322495937
      frame_id: "panda_link1"
    child_frame_id: "panda_link2"
    transform: 
      translation: 
        x: 0.0
        y: 0.0
        z: 0.0
      rotation: 
        x: -0.687208495491
        y: -0.166566754553
        z: -0.166566754554
        w: 0.687208495494
  - 
    header: 
      seq: 0
      stamp: 
        secs: 1583155840
        nsecs: 322495937
      frame_id: "panda_link2"
    child_frame_id: "panda_link3"
    transform: 
      translation: 
        x: 0.0
        y: -0.316
        z: 0.0
      rotation: 
        x: 0.70316550191
        y: 0.0745538524947
        z: -0.074553852495
        w: 0.703165501913
  - 
    header: 
      seq: 0
      stamp: 
        secs: 1583155840
        nsecs: 322495937
      frame_id: "panda_link3"
    child_frame_id: "panda_link4"
    transform: 
      translation: 
        x: 0.0825
        y: 0.0
        z: 0.0
      rotation: 
        x: -0.261028685057
        y: -0.657163621615
        z: 0.657163621619
        w: -0.261028685059
  - 
    header: 
      seq: 0
      stamp: 
        secs: 1583155840
        nsecs: 322495937
      frame_id: "panda_link4"
    child_frame_id: "panda_link5"
    transform: 
      translation: 
        x: -0.0825
        y: 0.384
        z: 0.0
      rotation: 
        x: -0.705134959235
        y: -0.0527701550363
        z: -0.0527701550365
        w: 0.705134959238
  - 
    header: 
      seq: 0
      stamp: 
        secs: 1583155840
        nsecs: 322495937
      frame_id: "panda_link5"
    child_frame_id: "panda_link6"
    transform: 
      translation: 
        x: 0.0
        y: 0.0
        z: 0.0
      rotation: 
        x: 0.399141054659
        y: -0.5836834917
        z: 0.583683491703
        w: 0.399141054661
  - 
    header: 
      seq: 0
      stamp: 
        secs: 1583155840
        nsecs: 322495937
      frame_id: "panda_link6"
    child_frame_id: "panda_link7"
    transform: 
      translation: 
        x: 0.088
        y: 0.0
        z: 0.0
      rotation: 
        x: 0.637590828674
        y: -0.305741615074
        z: 0.305741615076
        w: 0.637590828677
---
transforms: 
  - 
    header: 
      seq: 0
      stamp: 
        secs: 1583155840
        nsecs: 422540903
      frame_id: "panda_hand"
    child_frame_id: "panda_leftfinger"
    transform: 
      translation: 
        x: 0.0
        y: 0.0
        z: 0.0584
      rotation: 
        x: 0.0
        y: 0.0
        z: 0.0
        w: 1.0
  - 
    header: 
      seq: 0
      stamp: 
        secs: 1583155840
        nsecs: 422540903
      frame_id: "panda_hand"
    child_frame_id: "panda_rightfinger"
    transform: 
      translation: 
        x: 0.0
        y: 0.0
        z: 0.0584
      rotation: 
        x: 0.0
        y: 0.0
        z: 0.0
        w: 1.0
  - 
    header: 
      seq: 0
      stamp: 
        secs: 1583155840
        nsecs: 422540903
      frame_id: "panda_link0"
    child_frame_id: "panda_link1"
    transform: 
      translation: 
        x: 0.0
        y: 0.0
        z: 0.333
      rotation: 
        x: 0.0
        y: 0.0
        z: 0.240365901847
        w: 0.970682354444
  - 
    header: 
      seq: 0
      stamp: 
        secs: 1583155840
        nsecs: 422540903
      frame_id: "panda_link1"
    child_frame_id: "panda_link2"
    transform: 
      translation: 
        x: 0.0
        y: 0.0
        z: 0.0
      rotation: 
        x: -0.687408179356
        y: -0.165740746203
        z: -0.165740746203
        w: 0.68740817936
  - 
    header: 
      seq: 0
      stamp: 
        secs: 1583155840
        nsecs: 422540903
      frame_id: "panda_link2"
    child_frame_id: "panda_link3"
    transform: 
      translation: 
        x: 0.0
        y: -0.316
        z: 0.0
      rotation: 
        x: 0.703117455799
        y: 0.0750056221079
        z: -0.0750056221083
        w: 0.703117455803
  - 
    header: 
      seq: 0
      stamp: 
        secs: 1583155840
        nsecs: 422540903
      frame_id: "panda_link3"
    child_frame_id: "panda_link4"
    transform: 
      translation: 
        x: 0.0825
        y: 0.0
        z: 0.0
      rotation: 
        x: -0.260247552724
        y: -0.65747335406
        z: 0.657473354063
        w: -0.260247552725
  - 
    header: 
      seq: 0
      stamp: 
        secs: 1583155840
        nsecs: 422540903
      frame_id: "panda_link4"
    child_frame_id: "panda_link5"
    transform: 
      translation: 
        x: -0.0825
        y: 0.384
        z: 0.0
      rotation: 
        x: -0.705134206634
        y: -0.0527802106163
        z: -0.0527802106166
        w: 0.705134206637
  - 
    header: 
      seq: 0
      stamp: 
        secs: 1583155840
        nsecs: 422540903
      frame_id: "panda_link5"
    child_frame_id: "panda_link6"
    transform: 
      translation: 
        x: 0.0
        y: 0.0
        z: 0.0
      rotation: 
        x: 0.399000847591
        y: -0.583779344975
        z: 0.583779344978
        w: 0.399000847593
  - 
    header: 
      seq: 0
      stamp: 
        secs: 1583155840
        nsecs: 422540903
      frame_id: "panda_link6"
    child_frame_id: "panda_link7"
    transform: 
      translation: 
        x: 0.088
        y: 0.0
        z: 0.0
      rotation: 
        x: 0.637677564846
        y: -0.305560670391
        z: 0.305560670393
        w: 0.637677564849
---
transforms: 
  - 
    header: 
      seq: 0
      stamp: 
        secs: 1583155840
        nsecs: 522531986
      frame_id: "panda_hand"
    child_frame_id: "panda_leftfinger"
    transform: 
      translation: 
        x: 0.0
        y: 0.0
        z: 0.0584
      rotation: 
        x: 0.0
        y: 0.0
        z: 0.0
        w: 1.0
  - 
    header: 
      seq: 0
      stamp: 
        secs: 1583155840
        nsecs: 522531986
      frame_id: "panda_hand"
    child_frame_id: "panda_rightfinger"
    transform: 
      translation: 
        x: 0.0
        y: 0.0
        z: 0.0584
      rotation: 
        x: 0.0
        y: 0.0
        z: 0.0
        w: 1.0
  - 
    header: 
      seq: 0
      stamp: 
        secs: 1583155840
        nsecs: 522531986
      frame_id: "panda_link0"
    child_frame_id: "panda_link1"
    transform: 
      translation: 
        x: 0.0
        y: 0.0
        z: 0.333
      rotation: 
        x: 0.0
        y: 0.0
        z: 0.240294044572
        w: 0.97070014533
  - 
    header: 
      seq: 0
      stamp: 
        secs: 1583155840
        nsecs: 522531986
      frame_id: "panda_link1"
    child_frame_id: "panda_link2"
    transform: 
      translation: 
        x: 0.0
        y: 0.0
        z: 0.0
      rotation: 
        x: -0.688037334499
        y: -0.163109246622
        z: -0.163109246623
        w: 0.688037334502
  - 
    header: 
      seq: 0
      stamp: 
        secs: 1583155840
        nsecs: 522531986
      frame_id: "panda_link2"
    child_frame_id: "panda_link3"
    transform: 
      translation: 
        x: 0.0
        y: -0.316
        z: 0.0
      rotation: 
        x: 0.702867286756
        y: 0.0773147929256
        z: -0.077314792926
        w: 0.70286728676
  - 
    header: 
      seq: 0
      stamp: 
        secs: 1583155840
        nsecs: 522531986
      frame_id: "panda_link3"
    child_frame_id: "panda_link4"
    transform: 
      translation: 
        x: 0.0825
        y: 0.0
        z: 0.0
      rotation: 
        x: -0.257234621481
        y: -0.658657991304
        z: 0.658657991308
        w: -0.257234621482
  - 
    header: 
      seq: 0
      stamp: 
        secs: 1583155840
        nsecs: 522531986
      frame_id: "panda_link4"
    child_frame_id: "panda_link5"
    transform: 
      translation: 
        x: -0.0825
        y: 0.384
        z: 0.0
      rotation: 
        x: -0.705129282391
        y: -0.0528459564442
        z: -0.0528459564445
        w: 0.705129282394
  - 
    header: 
      seq: 0
      stamp: 
        secs: 1583155840
        nsecs: 522531986
      frame_id: "panda_link5"
    child_frame_id: "panda_link6"
    transform: 
      translation: 
        x: 0.0
        y: 0.0
        z: 0.0
      rotation: 
        x: 0.398522832578
        y: -0.584105771168
        z: 0.584105771171
        w: 0.39852283258
  - 
    header: 
      seq: 0
      stamp: 
        secs: 1583155840
        nsecs: 522531986
      frame_id: "panda_link6"
    child_frame_id: "panda_link7"
    transform: 
      translation: 
        x: 0.088
        y: 0.0
        z: 0.0
      rotation: 
        x: 0.63767834556
        y: -0.305559041106
        z: 0.305559041108
        w: 0.637678345563
---
transforms: 
  - 
    header: 
      seq: 0
      stamp: 
        secs: 1583155840
        nsecs: 622534036
      frame_id: "panda_hand"
    child_frame_id: "panda_leftfinger"
    transform: 
      translation: 
        x: 0.0
        y: 0.0
        z: 0.0584
      rotation: 
        x: 0.0
        y: 0.0
        z: 0.0
        w: 1.0
  - 
    header: 
      seq: 0
      stamp: 
        secs: 1583155840
        nsecs: 622534036
      frame_id: "panda_hand"
    child_frame_id: "panda_rightfinger"
    transform: 
      translation: 
        x: 0.0
        y: 0.0
        z: 0.0584
      rotation: 
        x: 0.0
        y: 0.0
        z: 0.0
        w: 1.0
  - 
    header: 
      seq: 0
      stamp: 
        secs: 1583155840
        nsecs: 622534036
      frame_id: "panda_link0"
    child_frame_id: "panda_link1"
    transform: 
      translation: 
        x: 0.0
        y: 0.0
        z: 0.333
      rotation: 
        x: 0.0
        y: 0.0
        z: 0.240306625982
        w: 0.970697030751
  - 
    header: 
      seq: 0
      stamp: 
        secs: 1583155840
        nsecs: 622534036
      frame_id: "panda_link1"
    child_frame_id: "panda_link2"
    transform: 
      translation: 
        x: 0.0
        y: 0.0
        z: 0.0
      rotation: 
        x: -0.689575856065
        y: -0.156477278635
        z: -0.156477278636
        w: 0.689575856069
  - 
    header: 
      seq: 0
      stamp: 
        secs: 1583155840
        nsecs: 622534036
      frame_id: "panda_link2"
    child_frame_id: "panda_link3"
    transform: 
      translation: 
        x: 0.0
        y: -0.316
        z: 0.0
      rotation: 
        x: 0.702456486872
        y: 0.0809622384169
        z: -0.0809622384173
        w: 0.702456486875
  - 
    header: 
      seq: 0
      stamp: 
        secs: 1583155840
        nsecs: 622534036
      frame_id: "panda_link3"
    child_frame_id: "panda_link4"
    transform: 
      translation: 
        x: 0.0825
        y: 0.0
        z: 0.0
      rotation: 
        x: -0.251403226127
        y: -0.66090575568
        z: 0.660905755683
        w: -0.251403226129
  - 
    header: 
      seq: 0
      stamp: 
        secs: 1583155840
        nsecs: 622534036
      frame_id: "panda_link4"
    child_frame_id: "panda_link5"
    transform: 
      translation: 
        x: -0.0825
        y: 0.384
        z: 0.0
      rotation: 
        x: -0.705124002669
        y: -0.0529163571882
        z: -0.0529163571885
        w: 0.705124002672
  - 
    header: 
      seq: 0
      stamp: 
        secs: 1583155840
        nsecs: 622534036
      frame_id: "panda_link5"
    child_frame_id: "panda_link6"
    transform: 
      translation: 
        x: 0.0
        y: 0.0
        z: 0.0
      rotation: 
        x: 0.397026923817
        y: -0.585123595287
        z: 0.58512359529
        w: 0.397026923819
  - 
    header: 
      seq: 0
      stamp: 
        secs: 1583155840
        nsecs: 622534036
      frame_id: "panda_link6"
    child_frame_id: "panda_link7"
    transform: 
      translation: 
        x: 0.088
        y: 0.0
        z: 0.0
      rotation: 
        x: 0.637853778509
        y: -0.305192655939
        z: 0.305192655941
        w: 0.637853778512
---
transforms: 
  - 
    header: 
      seq: 0
      stamp: 
        secs: 1583155840
        nsecs: 722637891
      frame_id: "panda_hand"
    child_frame_id: "panda_leftfinger"
    transform: 
      translation: 
        x: 0.0
        y: 0.0
        z: 0.0584
      rotation: 
        x: 0.0
        y: 0.0
        z: 0.0
        w: 1.0
  - 
    header: 
      seq: 0
      stamp: 
        secs: 1583155840
        nsecs: 722637891
      frame_id: "panda_hand"
    child_frame_id: "panda_rightfinger"
    transform: 
      translation: 
        x: 0.0
        y: 0.0
        z: 0.0584
      rotation: 
        x: 0.0
        y: 0.0
        z: 0.0
        w: 1.0
  - 
    header: 
      seq: 0
      stamp: 
        secs: 1583155840
        nsecs: 722637891
      frame_id: "panda_link0"
    child_frame_id: "panda_link1"
    transform: 
      translation: 
        x: 0.0
        y: 0.0
        z: 0.333
      rotation: 
        x: 0.0
        y: 0.0
        z: 0.240302967586
        w: 0.97069793642
  - 
    header: 
      seq: 0
      stamp: 
        secs: 1583155840
        nsecs: 722637891
      frame_id: "panda_link1"
    child_frame_id: "panda_link2"
    transform: 
      translation: 
        x: 0.0
        y: 0.0
        z: 0.0
      rotation: 
        x: -0.69185181992
        y: -0.146085794211
        z: -0.146085794212
        w: 0.691851819924
  - 
    header: 
      seq: 0
      stamp: 
        secs: 1583155840
        nsecs: 722637891
      frame_id: "panda_link2"
    child_frame_id: "panda_link3"
    transform: 
      translation: 
        x: 0.0
        y: -0.316
        z: 0.0
      rotation: 
        x: 0.701984016828
        y: 0.0849614036793
        z: -0.0849614036797
        w: 0.701984016832
  - 
    header: 
      seq: 0
      stamp: 
        secs: 1583155840
        nsecs: 722637891
      frame_id: "panda_link3"
    child_frame_id: "panda_link4"
    transform: 
      translation: 
        x: 0.0825
        y: 0.0
        z: 0.0
      rotation: 
        x: -0.24475652108
        y: -0.6633959944
        z: 0.663395994403
        w: -0.244756521082
  - 
    header: 
      seq: 0
      stamp: 
        secs: 1583155840
        nsecs: 722637891
      frame_id: "panda_link4"
    child_frame_id: "panda_link5"
    transform: 
      translation: 
        x: -0.0825
        y: 0.384
        z: 0.0
      rotation: 
        x: -0.705117077616
        y: -0.0530085545096
        z: -0.0530085545098
        w: 0.70511707762
  - 
    header: 
      seq: 0
      stamp: 
        secs: 1583155840
        nsecs: 722637891
      frame_id: "panda_link5"
    child_frame_id: "panda_link6"
    transform: 
      translation: 
        x: 0.0
        y: 0.0
        z: 0.0
      rotation: 
        x: 0.388868247011
        y: -0.590577248516
        z: 0.590577248518
        w: 0.388868247013
  - 
    header: 
      seq: 0
      stamp: 
        secs: 1583155840
        nsecs: 722637891
      frame_id: "panda_link6"
    child_frame_id: "panda_link7"
    transform: 
      translation: 
        x: 0.088
        y: 0.0
        z: 0.0
      rotation: 
        x: 0.639197256379
        y: -0.30236876068
        z: 0.302368760681
        w: 0.639197256382
---
transforms: 
  - 
    header: 
      seq: 0
      stamp: 
        secs: 1583155840
        nsecs: 822788000
      frame_id: "panda_hand"
    child_frame_id: "panda_leftfinger"
    transform: 
      translation: 
        x: 0.0
        y: 0.0
        z: 0.0584
      rotation: 
        x: 0.0
        y: 0.0
        z: 0.0
        w: 1.0
  - 
    header: 
      seq: 0
      stamp: 
        secs: 1583155840
        nsecs: 822788000
      frame_id: "panda_hand"
    child_frame_id: "panda_rightfinger"
    transform: 
      translation: 
        x: 0.0
        y: 0.0
        z: 0.0584
      rotation: 
        x: 0.0
        y: 0.0
        z: 0.0
        w: 1.0
  - 
    header: 
      seq: 0
      stamp: 
        secs: 1583155840
        nsecs: 822788000
      frame_id: "panda_link0"
    child_frame_id: "panda_link1"
    transform: 
      translation: 
        x: 0.0
        y: 0.0
        z: 0.333
      rotation: 
        x: 0.0
        y: 0.0
        z: 0.24032261408
        w: 0.970693072584
  - 
    header: 
      seq: 0
      stamp: 
        secs: 1583155840
        nsecs: 822788000
      frame_id: "panda_link1"
    child_frame_id: "panda_link2"
    transform: 
      translation: 
        x: 0.0
        y: 0.0
        z: 0.0
      rotation: 
        x: -0.69447278663
        y: -0.133069713412
        z: -0.133069713412
        w: 0.694472786634
  - 
    header: 
      seq: 0
      stamp: 
        secs: 1583155840
        nsecs: 822788000
      frame_id: "panda_link2"
    child_frame_id: "panda_link3"
    transform: 
      translation: 
        x: 0.0
        y: -0.316
        z: 0.0
      rotation: 
        x: 0.70165962609
        y: 0.0876000520152
        z: -0.0876000520156
        w: 0.701659626093
  - 
    header: 
      seq: 0
      stamp: 
        secs: 1583155840
        nsecs: 822788000
      frame_id: "panda_link3"
    child_frame_id: "panda_link4"
    transform: 
      translation: 
        x: 0.0825
        y: 0.0
        z: 0.0
      rotation: 
        x: -0.238728155007
        y: -0.665589113496
        z: 0.665589113499
        w: -0.238728155008
  - 
    header: 
      seq: 0
      stamp: 
        secs: 1583155840
        nsecs: 822788000
      frame_id: "panda_link4"
    child_frame_id: "panda_link5"
    transform: 
      translation: 
        x: -0.0825
        y: 0.384
        z: 0.0
      rotation: 
        x: -0.705119744977
        y: -0.052973061461
        z: -0.0529730614612
        w: 0.705119744981
  - 
    header: 
      seq: 0
      stamp: 
        secs: 1583155840
        nsecs: 822788000
      frame_id: "panda_link5"
    child_frame_id: "panda_link6"
    transform: 
      translation: 
        x: 0.0
        y: 0.0
        z: 0.0
      rotation: 
        x: 0.371660925745
        y: -0.601554782436
        z: 0.601554782439
        w: 0.371660925747
  - 
    header: 
      seq: 0
      stamp: 
        secs: 1583155840
        nsecs: 822788000
      frame_id: "panda_link6"
    child_frame_id: "panda_link7"
    transform: 
      translation: 
        x: 0.088
        y: 0.0
        z: 0.0
      rotation: 
        x: 0.640372358774
        y: -0.299872042905
        z: 0.299872042906
        w: 0.640372358777
---
transforms: 
  - 
    header: 
      seq: 0
      stamp: 
        secs: 1583155840
        nsecs: 922112941
      frame_id: "panda_hand"
    child_frame_id: "panda_leftfinger"
    transform: 
      translation: 
        x: 0.0
        y: 0.0
        z: 0.0584
      rotation: 
        x: 0.0
        y: 0.0
        z: 0.0
        w: 1.0
  - 
    header: 
      seq: 0
      stamp: 
        secs: 1583155840
        nsecs: 922112941
      frame_id: "panda_hand"
    child_frame_id: "panda_rightfinger"
    transform: 
      translation: 
        x: 0.0
        y: 0.0
        z: 0.0584
      rotation: 
        x: 0.0
        y: 0.0
        z: 0.0
        w: 1.0
  - 
    header: 
      seq: 0
      stamp: 
        secs: 1583155840
        nsecs: 922112941
      frame_id: "panda_link0"
    child_frame_id: "panda_link1"
    transform: 
      translation: 
        x: 0.0
        y: 0.0
        z: 0.333
      rotation: 
        x: 0.0
        y: 0.0
        z: 0.240334588087
        w: 0.970690108
  - 
    header: 
      seq: 0
      stamp: 
        secs: 1583155840
        nsecs: 922112941
      frame_id: "panda_link1"
    child_frame_id: "panda_link2"
    transform: 
      translation: 
        x: 0.0
        y: 0.0
        z: 0.0
      rotation: 
        x: -0.696819439207
        y: -0.12017765658
        z: -0.12017765658
        w: 0.69681943921
  - 
    header: 
      seq: 0
      stamp: 
        secs: 1583155840
        nsecs: 922112941
      frame_id: "panda_link2"
    child_frame_id: "panda_link3"
    transform: 
      translation: 
        x: 0.0
        y: -0.316
        z: 0.0
      rotation: 
        x: 0.701558111791
        y: 0.0884093647638
        z: -0.0884093647643
        w: 0.701558111794
  - 
    header: 
      seq: 0
      stamp: 
        secs: 1583155840
        nsecs: 922112941
      frame_id: "panda_link3"
    child_frame_id: "panda_link4"
    transform: 
      translation: 
        x: 0.0825
        y: 0.0
        z: 0.0
      rotation: 
        x: -0.233655166289
        y: -0.667386891738
        z: 0.667386891741
        w: -0.233655166291
  - 
    header: 
      seq: 0
      stamp: 
        secs: 1583155840
        nsecs: 922112941
      frame_id: "panda_link4"
    child_frame_id: "panda_link5"
    transform: 
      translation: 
        x: -0.0825
        y: 0.384
        z: 0.0
      rotation: 
        x: -0.705159464319
